id,business_id,name,address,city,state,postal_code,latitude,longitude,categories,stars,review_count,is_open,delivery,takeout,outdoor_seating,drivethrough,wheelchair_friendly,alcohol_beverage,dancing,catering,counter_service,seating,dogs_allowed,bike_parking,parking,breakfast,lunch,dinner,dessert,casual,romantic,formal,trendy,with_reservation,live_entertainment,groups,kids_friendly,wifi,bar_onsite,credit_cards
ziositalianm279161827604,0bPLkL0QhhPO5kt1_EXmNQ,Zio's Italian Market,2575 E Bay Dr,largo,FL,33771,27.9161159,-82.7604608,"['food', 'italian', 'restaurants']",4.5,100,0,1,1,0,0,1,0,0,1,1,0,0,1,1,0,1,0,0,1,0,0,0,1,0,0,1,0,0,1
charliesmark280103824300,0qNpTGTcqPwOLi2hADx4Xw,Charlie's Market,2815 E Sligh Ave,tampa,FL,33610,28.0103596,-82.4300416,['food'],3.0,9,1,0,1,0,0,0,0,0,0,0,1,0,1,0,0,0,0,0,0,0,0,0,0,0,0,0,0,0,1
romanforumxx280462825050,uI9XODGY_2_ieTE6xJ0myw,Roman Forum,10440 N Dale Mabry Hwy,tampa,FL,33618,28.0462028173,-82.5050526736,"['restaurants', 'italian']",4.0,23,0,0,1,1,0,0,0,0,1,0,1,0,0,1,0,0,0,0,1,0,0,0,1,0,1,1,0,0,1
joespizzaxxx279605825061,JgpnXv_0XhV3SfbfB50nxw,Joe's Pizza,2038 N Dale Mabry Hwy,tampa,FL,33607,27.9605142,-82.506127,"['restaurants', 'pizza']",4.0,35,0,1,1,0,0,0,0,0,0,0,1,0,1,1,0,1,1,0,1,0,0,0,1,0,1,1,0,0,1
publixsuperm283326826681,KWA2qtdwVEkMpd5soSKaGA,Publix Super Market,12101 Little Rd,hudson,FL,34667,28.3326007,-82.6681066,['food'],3.5,7,0,0,0,0,0,0,0,0,0,0,1,0,1,1,0,0,0,0,0,0,0,0,0,0,0,0,0,0,1
topshelfspor281962823806,pJfh3Ct8iL58NZa8ta-a5w,Top Shelf Sports Lounge,3173 Cypress Ridge Blvd,wesley chapel,FL,33544,28.1962523878,-82.3806153496,['restaurants'],4.5,95,1,1,1,0,0,1,1,0,1,0,1,0,1,1,0,0,1,0,1,0,0,0,1,0,1,0,1,0,1
impastoxxxxx278908825023,RK6-cJ9hj53RzOlCBmpT-g,Impasto,,tampa,FL,33611,27.890814,-82.5023464,"['restaurants', 'italian', 'food']",5.0,5,1,0,1,0,0,0,0,0,1,0,1,0,0,1,0,0,0,0,0,0,0,0,0,0,0,0,0,0,1
thepearlxxxx277694827673,vje0KIiE7vtpx7JzmBx5LQ,The Pearl,163 107th Ave,treasure island,FL,33706,27.7694046,-82.767317,"['restaurants', 'french', 'moroccan', 'seafood', 'mediterranean']",4.0,129,1,1,1,1,0,1,0,0,1,0,1,0,1,0,0,0,1,0,1,0,0,0,1,0,1,0,1,0,1
walmartsuper281477827425,4dVrWc4Nhuw9apfk9BWEcA,Walmart Supercenter,41232 US Hwy 19 N,tarpon springs,FL,34689,28.1477204,-82.7425681,['food'],2.0,29,1,1,0,0,0,0,0,0,0,0,1,0,1,1,0,0,0,0,0,0,0,0,0,0,0,0,0,0,1
thecakedripx279357824764,zFvqulgAYOpSG2t1v8AZ-w,The Cake Drip,1625 W Snow Cir,tampa,FL,33606,27.935753,-82.4764699,['food'],4.0,40,1,0,1,0,0,0,0,0,0,0,1,0,0,1,0,0,0,0,0,0,0,0,0,0,0,0,0,0,0
paylessliquo396322861586,PYW8Buz8S8LpjIe6mZTAcw,Payless Liquors,954 N State Rd 135,greenwood,FL,46143,39.632279734,-86.158674289,['food'],3.5,13,1,0,1,0,0,0,0,0,0,0,1,0,1,0,0,0,0,0,0,0,0,0,0,0,0,0,0,0,1
chipotlemexi278941827798,aNtKyc2rr-uK5cqzY9TVQQ,Chipotle Mexican Grill,10160 Ulmerton Rd,largo,FL,33771,27.894167,-82.779866,"['mexican', 'restaurants']",3.0,19,1,1,1,1,1,0,0,0,1,1,0,0,1,1,0,1,0,0,1,0,0,0,1,0,0,1,1,0,1
barbcutiexxx362965867001,BxhkoR6cscJwwex8gx31OA,Bar-B-Cutie,1787 Gallatin Pike N,madison,FL,37115,36.296536,-86.700179,['restaurants'],3.5,40,1,1,1,0,1,0,0,0,1,0,1,0,1,1,0,0,0,0,1,0,0,0,1,0,1,1,0,0,1
trustmebbqxx278652823260,P10BsKUeoeCeVoK4BS2u0w,Trust Me BBQ,8624 US Hwy 301 S,riverview,FL,33569,27.8652573,-82.3260903,['restaurants'],4.0,29,0,0,1,1,0,0,0,0,1,0,1,0,0,0,0,0,0,0,1,0,0,0,1,0,1,1,0,0,1
pdqtempleter280548823995,QjV4v7q_pt7tt3K1US7IHg,PDQ Temple Terrace,5112 E Fowler Ave,tampa,FL,33617,28.0548882706,-82.3995484,['restaurants'],3.0,5,1,1,1,0,0,0,0,0,1,0,1,0,0,1,0,0,0,0,0,0,0,0,1,0,0,0,0,0,1
romapizzaita402295751310,59jkCUm4yHciKL1KW_1HJA,Roma Pizza & Italian Eatery,1103 Main St,warrington,FL,18976,40.2295269733,-75.1310898382,"['pizza', 'restaurants']",2.5,25,1,1,1,0,0,0,0,0,0,0,1,0,0,0,0,0,0,0,1,0,0,0,1,0,1,1,0,0,1
aussiegrillx281921823963,CtMEJxpVMlNzFpB4PtFjfA,Aussie Grill,25340 Sierra Center Blvd,lutz,FL,33559,28.192191035,-82.396367,['restaurants'],4.0,75,1,1,1,1,0,1,0,0,1,0,1,0,0,1,0,0,0,0,0,0,0,0,0,0,0,0,0,0,1
pubgrillxxxx279657827989,ZU6NodDOWaabGkeNpOWdXw,530 Pub & Grill,530 Cleveland St,clearwater,FL,33755,27.9657471097,-82.7989008,['restaurants'],4.5,6,1,1,1,0,0,1,0,0,0,0,1,0,0,1,0,0,0,0,0,0,0,0,0,0,0,0,0,0,0
zestytsunami282502826824,8c0r7olQSYGcws0bTd3ikw,Zesty Tsunami,6614 Osteen Rd,new port richey,FL,34653,28.2502179787,-82.6824409515,"['hawaiian', 'food', 'restaurants']",4.0,5,0,0,1,0,0,0,0,0,0,1,0,0,0,1,0,0,0,0,1,0,0,0,1,0,1,1,0,0,1
obriensirish280923825005,Ucl9Vo5lwrUmYbV8Dv8X5g,O'Briens Irish Pub,15435 N Dale Mabry Hwy,tampa,FL,33618,28.09236,-82.500588,"['irish', 'restaurants']",4.0,108,1,0,1,1,0,0,0,1,1,0,1,1,1,1,0,0,1,0,1,0,0,0,1,1,1,1,1,0,1
leeroyselmon280787825063,xbRbvXSAVZBEwaUUn3mzbg,Lee Roy Selmon's,14457 N Dale Mabry Hwy,tampa,FL,33618,28.0787347875,-82.5063104158,['restaurants'],3.5,42,0,1,1,1,0,0,1,0,1,0,1,0,1,1,0,0,0,0,1,0,0,0,1,0,1,1,1,0,1
fourgreenfie279803825377,VVvUBlc_WIEb8obKGq39dA,Four Green Fields,"4100 George J Bean Pkwy, Airside E, Tampa International Airport",tampa,FL,33607,27.9803985924,-82.5377866183,"['restaurants', 'irish']",4.5,39,1,0,1,0,0,0,0,0,0,0,1,0,0,0,1,1,0,0,1,0,0,0,1,0,0,1,0,0,1
cafeconleche279767825374,py5aKmlTB2NarfsfcOpHOQ,Cafe Con Leche,4100 George J Bean Pkwy,tampa,FL,33607,27.9767745,-82.5374233,"['restaurants', 'food']",2.5,55,1,1,1,0,0,0,0,0,0,1,0,0,0,0,0,0,0,0,1,0,0,0,1,0,0,1,1,0,1
sakehousexxx280552823993,dJfkfBbJz7wi0RgW-ph_Eg,Sake House,5106 E Fowler Ave,tampa,FL,33617,28.055212,-82.399374,"['restaurants', 'japanese']",3.0,140,0,1,1,0,0,0,1,0,1,0,1,0,1,1,0,1,1,0,1,0,0,0,1,0,1,1,0,0,1
phofriendlyx402354747532,tuyCmcmm5Q-bc-9zV76xKA,Pho Friendly,729 Brunswick Ave,trenton,FL,08638,40.23547,-74.7532115132,"['thai', 'vietnamese', 'chinese', 'restaurants']",4.5,93,0,1,0,0,0,0,0,0,0,0,1,0,0,1,0,1,0,0,1,0,0,0,1,0,1,1,0,0,1
brandonburge279373823077,SRexiuEsx1d9-dZVUsssQA,Brandon Burgers,1513 W Brandon Blvd,brandon,FL,33511,27.9373704213,-82.3077001423,['restaurants'],3.5,24,1,1,1,0,0,1,0,0,1,0,1,1,1,1,0,0,0,0,0,0,0,0,0,0,0,0,0,0,1
gpeppersgril280921825785,XwoXi0M66RU6Gouq-DSDHw,G Peppers Grill & Tavern,8745 Gunn Hwy,odessa,FL,33556,28.0921362,-82.5785736,"['restaurants', 'mexican']",4.0,82,1,0,1,0,0,0,1,0,0,0,1,0,1,1,0,1,1,0,1,0,0,0,1,0,1,1,1,0,1
thehideoutco279344822878,8YJtf5v76SIz-4udyF4YmA,The Hideout Coffee House,218 Oakfield Dr,brandon,FL,33511,27.9344684803,-82.2878021747,['food'],4.5,22,0,0,1,1,0,1,0,0,0,0,1,0,1,0,0,0,0,0,0,0,0,0,0,0,0,0,1,0,1
maithairesta278915822725,iBRXLFWD7PeSYDbKsd_JTw,Mai Thai Restaurant,875 E Bloomingdale Ave,brandon,FL,33511,27.8915738378,-82.2725105,"['food', 'restaurants', 'thai']",4.5,27,0,0,1,0,0,0,0,0,1,0,1,0,1,0,0,0,0,0,1,0,0,0,1,0,1,1,1,0,1
sohooasiscaf279402824828,sUQ-OfJYSNfz-cimEjoaXQ,Soho Oasis Cafe,410 S Howard Ave,tampa,FL,33606,27.9402059,-82.4828837,"['restaurants', 'middle eastern']",3.5,7,0,0,1,1,0,0,0,0,0,0,1,0,0,1,0,0,0,0,1,0,0,0,1,0,1,1,0,0,1
noblecrustxx281882823472,j9Kaj_6tSeXmVMYCgZithg,Noble Crust,28330 Paseo Dr,wesley chapel,FL,33543,28.188219,-82.347274,"['restaurants', 'italian', 'pizza']",4.5,496,1,1,1,1,0,1,1,0,1,0,1,0,0,1,0,1,1,1,1,0,0,1,1,0,1,1,1,0,1
dominospizza280420826746,EIlFs8kybcG-l60GJjNUIA,Domino's Pizza,"3800 Tampa Rd, Ste 180",oldsmar,FL,34677,28.0420037,-82.6746125,"['pizza', 'chicken wings', 'restaurants']",2.5,20,1,1,1,0,0,0,0,0,0,0,1,0,0,1,0,0,0,0,1,0,0,0,1,0,1,1,0,0,1
thesiloeater279464823555,z9wCTHYI2VZy9YIblwSsgg,The Silo Eatery Coffee Bakery,"9036 Brittany Way, Bldg 18",tampa,FL,33619,27.9464963776,-82.3555628732,"['restaurants', 'food']",4.0,5,0,0,0,1,0,0,0,0,0,0,1,0,0,0,0,0,0,0,0,0,0,0,1,0,0,0,1,0,0
libertycityr401005748651,cl5NjtALgaX7E-WL2DtiYQ,Liberty City Roasters,222R US Hwy 13,bristol,FL,19007,40.100524,-74.865196,['food'],4.5,8,1,1,1,0,0,0,0,0,1,0,1,0,1,1,0,0,0,0,0,0,0,0,0,0,0,0,0,0,1
elsaborboric280535824534,Rz0KfP7YAZV_yQE8uIB0fg,El Sabor Boricua,11612 N Nebraska Ave,tampa,FL,33612,28.0535153,-82.4534422,"['puerto rican', 'caribbean', 'latin american', 'restaurants']",5.0,6,0,1,1,1,0,1,0,0,1,0,1,0,1,0,0,0,0,0,1,0,0,0,1,0,1,1,0,0,1
mosifoodtruc280536824044,wFXwmrlV8TiBS4Ac2-W_9g,MOSI Food Truck Rally,4801 East Fowler Ave,tampa,FL,33617,28.0536294,-82.4044188,['restaurants'],3.5,10,0,0,0,0,0,0,0,0,0,0,1,0,0,1,0,0,0,0,0,0,0,0,0,0,0,1,0,0,0
thecornercaf279444824578,516L9-ZWyqVgzqjP5uW7Jg,The Corner Cafe and Deli,"100 S Ashley Dr, Ste 220",tampa,FL,33602,27.9444574,-82.4578244,"['food', 'restaurants']",4.0,6,1,1,1,0,0,0,0,0,1,0,1,0,0,0,1,1,0,0,1,0,0,0,1,0,1,1,1,0,1
thehiphopsan284934825469,OlD8UoHqrKnLoZUFxuas_w,The Hip Hop Sandwich Shop,10470 Northcliffe Blvd,spring hill,FL,34608,28.4934721999,-82.546930168,['restaurants'],2.5,5,1,1,1,0,0,0,0,0,0,0,1,0,0,1,0,0,0,0,0,0,0,0,0,0,0,0,0,0,0
nutrishopxxx279210823272,iONfxRWQqA8pAPMZFNLaug,Nutrishop,2940 Providence Lakes Blvd,brandon,FL,33511,27.9210171,-82.3272616,['food'],4.0,9,1,1,1,0,0,1,0,0,0,0,1,0,1,1,0,0,0,0,0,0,0,0,0,0,0,0,0,0,1
thebricksxxx279600824444,dIpTuL2T1L98GQGU17IeSw,The Bricks,1327 E 7th Ave,tampa,FL,33605,27.9600238,-82.4444005,"['restaurants', 'food', 'vegetarian']",4.0,548,1,1,1,1,0,1,1,0,1,0,1,0,1,1,0,1,1,0,1,0,0,0,1,0,1,1,1,0,1
bigmikesbbqx280114825828,FW1PXpUq-yOs-5O_gqz3AQ,Big Mike's BBQ,6901 Sheldon Rd,tampa,FL,33615,28.0114997,-82.5828401,['restaurants'],4.5,32,0,0,1,1,0,0,0,0,0,1,0,0,0,1,0,0,0,0,1,0,0,0,1,0,1,1,0,0,1
dunkinxxxxxx278718827502,vxrGNnuEef7YCfB7mN08rA,Dunkin',8150 Bryan Dairy Rd,pinellas park,FL,33777,27.8718285,-82.7502853,['food'],2.0,8,1,1,1,0,0,0,0,0,0,0,1,0,0,1,0,0,0,0,0,0,0,0,0,0,0,0,0,0,0
nonesuchfarm403186750662,00szsg8vQy6yX5f-m9sI4A,None Such Farm Market,4458 York Rd,buckingham,FL,18912,40.31862,-75.066274,['food'],4.0,36,1,0,1,0,0,0,0,0,0,0,1,0,1,1,0,0,0,0,0,0,0,0,0,0,0,0,0,0,1
starbucksxxx279963825809,6_Zf2QsRHCH1RhbzA9inyw,Starbucks,8602 Hillsborough Ave,tampa,FL,33615,27.9963703,-82.580954,['food'],3.0,56,1,0,1,1,0,0,0,0,0,0,1,0,1,1,0,0,0,0,0,0,0,0,0,0,0,0,1,0,1
zigzagscallo284977826500,SFKjUQ1gmfwm7cJhMCFmkA,ZigZag Scallop,4417 Calienta St,hernando beach,FL,34607,28.497700000000002,-82.650015,"['seafood', 'restaurants']",4.0,214,1,1,1,1,0,1,1,0,1,0,1,0,1,1,0,1,1,0,1,0,0,0,1,1,1,1,1,0,1
auntieannesx280686825751,GJpAeUSsPIsVK6_0Lfuekg,Auntie Anne's,8094 Citrus Park Town Center Mall,tampa,FL,33625,28.0686496,-82.5751466,['food'],2.0,7,1,1,1,0,0,0,0,0,0,0,1,0,1,0,0,0,0,0,0,0,0,0,0,0,0,0,0,0,1
bageliciousa279588822789,-H6s1c2NRic5UKxXqi4FdQ,Bagelicious and More,1232 Kingsway Rd,brandon,FL,33510,27.9588017985,-82.2789713027,"['food', 'restaurants']",3.5,7,0,0,0,0,0,0,0,0,0,0,1,0,1,1,0,0,0,0,0,0,0,0,0,0,0,0,0,0,1
snellgrovesr280148821231,3c9TiufCFT2yXXj3R08Vwg,Snellgroves Restaurant,109 S Collins St,plant city,FL,33563,28.0148425,-82.1231756,['restaurants'],3.5,64,1,1,1,0,0,0,0,0,1,0,1,0,1,1,1,1,0,0,1,0,0,0,1,0,1,1,1,0,1
adventurecoa284352825669,nHUJCK-Ek_lAVTSyEz9GEQ,Adventure Coast Fun Park,9227 County Line Rd,spring hill,FL,34608,28.4352625,-82.5669664,['restaurants'],4.5,10,1,0,0,0,0,1,0,0,0,0,1,0,0,1,0,0,0,0,0,0,0,0,1,0,0,1,0,0,1
mcdonaldsxxx279253823253,A1lAqN3SOaBLoo6NqVcy4Q,McDonald's,11110 Causeway Blvd,brandon,FL,33511,27.925332,-82.325395,"['food', 'restaurants']",2.0,6,1,1,1,0,1,0,0,0,0,0,1,0,0,1,0,0,0,0,0,0,0,0,1,0,1,1,0,0,1
hippiehixxxx279684827621,epGYbd0_OeSxsSkw-Kx5Rg,Hippie Hi,1814 Drew St,clearwater,FL,33764,27.9684516983,-82.7621585038,"['vegan', 'gluten-free', 'restaurants', 'food']",4.0,16,0,0,1,1,0,1,0,0,0,1,0,0,0,1,0,0,0,0,0,0,0,0,1,0,0,0,1,0,1
pitakebobxxx277134823943,8JEOmVGQffkr6xtn4vvplQ,Pita Kebob,3028 E College Ave,ruskin,FL,33570,27.713401,-82.394372,"['mediterranean', 'middle eastern', 'lebanese', 'restaurants', 'greek', 'food']",4.0,142,1,0,0,1,0,0,0,0,1,0,1,0,0,1,0,1,1,0,1,0,0,0,1,0,1,1,1,0,1
tindrumasiac280451826812,O5zuQH_YowDC-rsK8ZEXCA,Tin Drum Asia Cafe,"3867Tampa Rd, Ste 305",tampa,FL,34677,28.0451503082,-82.6812278379,"['asian fusion', 'restaurants']",3.0,62,0,0,1,0,0,0,0,0,1,1,0,0,0,0,0,1,0,0,1,0,0,0,1,0,1,1,0,0,1
thejuicepodx399249753402,1o_M5JdOkJJFNj1rIDIlng,The Juice Pod,11 W Woodland Ave,springfield,FL,19064,39.9249328,-75.3402158,['food'],4.0,19,1,1,1,0,0,1,0,0,0,0,1,0,1,1,0,0,0,0,0,0,0,0,0,0,0,0,1,0,1
whitecastlex387061902701,aSJdDcspNCf-2oNF2E6SJQ,White Castle,5231 Jennings Station Rd,jennings,FL,63136,38.7061191433,-90.2701565031,['restaurants'],2.0,6,1,1,1,0,0,0,0,0,0,0,1,0,0,1,0,0,0,0,0,0,0,0,0,0,0,0,0,0,0
caffeitalian281879823500,sophKEDc2rBDe-cuOaJDkA,365 Caffe Italiano,"28210 Paseo Dr, Ste 100, Shops At Wiregrass",wesley chapel,FL,33543,28.187946572,-82.3500558385,"['food', 'restaurants']",4.5,127,1,1,1,1,0,1,0,0,0,1,0,1,1,1,1,1,0,1,1,0,0,0,1,0,1,1,1,0,1
dunkinxxxxxx278940822719,vMp55ea__Pk0fYbBDCn6jg,Dunkin',808 E Bloomingdale Ave,brandon,FL,33511,27.8940624,-82.2719595,['food'],2.0,23,1,1,1,0,0,0,0,0,0,0,1,0,1,0,0,0,0,0,0,0,0,0,0,0,0,0,1,0,1
cvspharmacyx280439826769,feVi5a5xZaahs4WsUfi1tw,CVS Pharmacy,3771 Tampa Rd,oldsmar,FL,34677,28.0439,-82.6769,['food'],3.5,17,1,1,0,0,1,0,0,0,0,0,1,0,0,1,0,0,0,0,0,0,0,0,0,0,0,0,0,0,1
kelpsushijoi279200824989,71U7MxQEhwitJOm4CQpRwQ,KELP Sushi Joint,"3401 W Bay To Bay Blvd, Ste D",tampa,FL,33629,27.920067,-82.4989209,"['japanese', 'food', 'restaurants', 'asian fusion', 'poke']",4.0,325,1,1,1,1,0,1,1,0,1,1,0,1,1,1,0,1,1,0,1,0,0,1,1,0,1,1,1,0,1
hardeesxxxxx279955825124,_-SSObHzljeA11HAF0lIrQ,Hardee's,4116 W Hillsborough Ave,tampa,FL,33614,27.9955205,-82.512474,['restaurants'],2.5,27,0,0,1,0,0,0,0,0,0,0,1,0,0,0,0,1,0,0,1,0,0,0,1,0,1,1,0,0,1
oshucksseafo277852827821,L0-MS0MbQhEWAPLkjCqhpg,O'Shucks Seafood & Grill,"111 Boardwalk Pl W, Ste 203",madeira beach,FL,33708,27.7852179,-82.7821118,"['mexican', 'seafood', 'restaurants']",3.5,29,0,0,1,1,0,1,0,0,0,0,1,0,1,1,0,0,0,0,0,0,0,0,0,0,1,1,1,0,1
auntieannesx280173827345,q4m9o8LDJRrdU1DcgcAm3w,Auntie Anne's,27001 US Highway 19 N,clearwater,FL,33761,28.0173889,-82.734549,"['restaurants', 'food']",2.5,10,1,1,1,0,0,0,0,0,0,0,1,0,0,1,0,0,0,0,0,0,0,0,0,0,0,0,0,0,1
sonnysbbqxxx279958825722,EjzWyITI75CKSKb6RGCG_Q,Sonny's BBQ,8106 W Hillsborough Avenue,tampa,FL,33615,27.9958415,-82.5722699,['restaurants'],3.0,11,0,0,1,0,0,0,0,0,0,0,1,0,0,0,0,0,0,0,1,0,0,0,1,0,0,0,0,0,1
gandolfosnew280642825053,lCBLhf37pnkyZ-1MWNF3ag,Gandolfo's New York Deli,12908 N Dale Mabry Hwy,tampa,FL,33618,28.0642084807,-82.5053286552,['restaurants'],2.5,23,0,0,1,1,0,0,0,0,1,0,1,0,1,0,0,0,0,0,1,0,0,0,1,0,1,1,1,0,1
tedsluncheon279278827961,gl9APAes1BYYt_8UsDVsPg,Ted's Luncheonette,1201 Clearwater Largo Rd N,largo,FL,33770,27.9278613,-82.7961982,['restaurants'],4.0,37,1,0,1,0,0,0,0,0,0,0,1,0,1,1,1,1,0,0,1,0,0,0,1,0,1,1,0,0,1
thehummingbi281302823649,vVm2qH6n4tWzN_qv6PBIVw,The Humming Bird Jerk house,"17631 Bruce B Downs Blvd, Unit F",tampa,FL,33647,28.130283,-82.364992,"['restaurants', 'caribbean']",3.5,32,1,1,1,0,0,0,0,0,0,0,1,0,0,0,0,0,0,0,0,0,0,0,0,0,0,0,0,0,0
whaleysblazi281379824626,jBCgQ6nZDsMCWU7eaSxOpw,Whaley's Blazin BBQ,18213 N US Highway 41,lutz,FL,33549,28.137927,-82.4626332,"['restaurants', 'food']",4.5,58,0,0,1,0,0,0,0,0,1,1,0,0,1,1,0,1,1,0,1,0,0,0,1,0,1,1,0,0,1
savealotxxxx282574827057,bA67-1nlrQpuPAowhGnvIw,Save A Lot,6536 Massachusetts Ave,new port richey,FL,34653,28.2574576,-82.7057537,['food'],3.0,7,1,0,0,0,0,0,0,0,0,0,1,0,0,1,0,0,0,0,0,0,0,0,0,0,0,0,0,0,1
dunkinxxxxxx278347823281,sZyBB8wv0O1We1x40-Edug,Dunkin',11404 S US Hwy 301,riverview,FL,33569,27.834780999,-82.3281975657,['food'],2.5,30,1,1,1,0,0,0,0,0,0,0,1,0,0,1,0,0,0,0,0,0,0,0,0,0,0,0,1,0,1
portofinosit279955825828,5cz1XbgalpQ89gsNQwneVQ,Portofino's Italian Kitchen,6742 Memorial Hwy,tampa,FL,33615,27.9955961525,-82.5828616138,"['restaurants', 'pizza', 'italian']",4.0,59,0,1,1,0,0,1,0,0,1,0,1,0,0,0,0,0,0,0,1,0,0,0,1,0,1,1,1,0,1
diomodernmed279491824583,rBE5TT_ndOOczNBrbRnJwA,Dio Modern Mediteranean,519 N Franklin St,tampa,FL,33602,27.9491200666,-82.458398826,"['greek', 'restaurants', 'mediterranean']",4.0,325,1,0,1,1,0,1,0,0,1,0,1,0,1,1,0,1,0,1,1,0,0,0,1,0,1,1,1,0,1
terrasurcafe280819825391,oRZzKWdyMQld6N_y4UWkAg,Terra Sur Cafe,"5330 Ehrlich Rd, Ste 103",tampa,FL,33624,28.0819277157,-82.5391477434,"['latin american', 'restaurants', 'peruvian', 'seafood']",4.0,316,1,1,1,0,0,0,0,0,1,0,1,0,1,1,0,1,1,0,1,1,0,0,1,0,1,1,0,0,1
meatdepotxxx280533824442,KwCZuRlaeciJsOXkCOtjDA,Meat Depot,1401 E Fowler Ave,tampa,FL,33612,28.0533777,-82.4442952,['food'],3.5,10,1,0,0,0,0,0,0,0,0,0,1,0,1,1,0,0,0,0,0,0,0,0,0,0,0,0,0,0,1
tazamediterr279404822667,biGIDbCGsAZJ-Y4zyV_b_A,Taza Mediterranean Grill,1076 East Brandon Blvd,brandon,FL,33511,27.940439,-82.266787,"['vegan', 'restaurants', 'mediterranean', 'middle eastern']",4.5,65,0,1,1,0,0,0,0,0,1,0,1,0,1,0,0,1,0,0,1,0,0,0,1,0,1,1,0,0,1
smokinoutxxx282076827404,CjkxTRergWcYWb4SVW3gxw,Smokin' Out,3333 US Hwy 19,holiday,FL,34691,28.20766,-82.740475,['restaurants'],4.5,88,0,0,1,0,0,0,0,0,1,0,1,0,1,1,0,1,1,0,1,0,0,0,1,0,1,1,0,0,1
sawgrasstiki281551827601,U48gI6zzlDkvUDS9bsdvUg,Sawgrass Tiki Bar,610 Athens St,tarpon springs,FL,34689,28.155101,-82.760169,['karaoke'],3.0,7,0,0,0,0,0,0,0,0,0,0,1,0,1,1,0,0,0,0,0,0,0,0,0,0,1,0,0,0,1
elranchomexi282867827152,3Kj0DlqXWTGqi6GUsM0Nfg,El Rancho Mexican Grill,10128 US Hwy 19,port richey,FL,34668,28.2867431,-82.7152898,"['mexican', 'restaurants']",2.5,9,0,0,1,0,0,0,0,0,0,0,1,0,0,1,0,0,0,0,1,0,0,0,1,0,0,0,0,0,1
tacobellxxxx279449825232,H2nFgEFitRk7ltE8IRH0xA,Taco Bell,4647 West Kennedy Blvd,tampa,FL,33609,27.944918,-82.523213,"['restaurants', 'tex-mex', 'mexican']",2.5,42,1,1,1,0,1,0,0,0,0,0,1,0,1,1,1,0,0,0,1,0,0,0,1,0,1,1,0,0,1
palodeazucar402071747499,koeubKPpi6ax4FDh7_zcWg,Palo De Azucar Cafe,862 S Broad St,trenton,FL,08611,40.2071578,-74.7499323386,"['restaurants', 'food']",5.0,5,1,0,0,0,0,0,0,0,0,0,1,0,0,1,0,0,0,0,0,0,0,0,0,0,0,0,0,0,0
beefobradysx281406824612,Ea2hPSFazxXITET4f6ZJhw,Beef 'O' Brady's,18421 N US Hwy 41,lutz,FL,33549,28.140648,-82.461204,"['chicken wings', 'restaurants']",3.0,46,1,1,1,0,0,1,1,0,1,0,1,0,1,1,0,1,0,0,1,0,0,0,1,0,1,1,1,0,1
fuzzystacosh280533823928,_HcAoG6Jj_XTj4-XNEbo6Q,Fuzzy's Taco Shop,"5621 E Fowler Ave, Units 201-207",tampa,FL,33617,28.0533288743,-82.3928146398,"['mexican', 'tex-mex', 'restaurants']",3.0,172,1,1,1,1,0,1,1,0,1,1,0,1,1,1,0,1,1,0,1,0,0,0,1,0,1,1,1,0,1
orchidthaifo281184823816,q40E5X_HdjeM_Kl1BE7Gtg,Orchid Thai Foods,17022 Palm Pointe Dr,tampa,FL,33647,28.1184025,-82.3816714,"['asian fusion', 'restaurants', 'thai']",4.5,62,0,0,1,0,0,1,0,0,1,0,1,0,1,0,0,1,0,0,1,0,0,0,1,0,0,1,1,0,1
harvestbowle280027824590,QNxXsVPYcecUuhGRG-88OQ,Harvest Bowl Eatery & Market,6109 N Florida Ave,tampa,FL,33604,28.002703,-82.4590917,"['vegan', 'restaurants']",4.0,101,1,1,1,0,0,1,0,0,1,1,0,0,1,1,0,0,0,0,0,0,0,1,1,0,1,0,1,0,1
frostbeangel280104827897,j_eImSxsxnW0FCM1b5ekEQ,Frost & Bean Gelato & Coffee Laboratory,"730 Broadway, Ste 3",dunedin,FL,34698,28.0104187049,-82.7897292149,['food'],4.0,11,0,0,0,0,0,0,0,0,0,0,1,0,1,1,0,0,0,0,0,0,0,0,0,0,0,0,0,0,1
islandfinpok281690823566,hTyJhpH7Bl5moMWQb4Sosg,Island Fin Poké,"6417 E County Line Rd, Ste 101",tampa,FL,33647,28.169016,-82.356628,"['gluten-free', 'poke', 'food', 'restaurants', 'hawaiian']",5.0,88,1,1,1,1,0,1,0,0,1,1,0,0,1,0,0,0,0,0,0,0,0,0,0,0,0,0,1,0,1
wheelcafexxx280193827742,5QCLmv-JrdY0ZGc_D5__iw,Wheel Cafe,1140 Main St,dunedin,FL,34698,28.019385,-82.7742533,"['food', 'restaurants']",4.5,68,0,0,1,0,0,1,0,0,1,0,1,0,0,1,1,1,0,0,1,0,0,0,1,0,1,1,1,0,1
miamisbestcu278377827872,xqEX7nzaESYmwyS5f_UI9g,Miami's Best Cuban By Los Maruchos,7194 Seminole Blvd,seminole,FL,33772,27.8377084637,-82.7872937707,"['restaurants', 'cuban']",4.5,42,0,0,1,1,0,0,0,0,1,1,0,0,1,1,0,1,0,0,1,0,0,0,1,0,0,1,1,0,1
dunkinxxxxxx280127825055,tjEKEDmyR_VmeBkJGwreLA,Dunkin',7004 N. Dale Mabry Hwy,tampa,FL,33614,28.0127575,-82.5055465,['food'],2.0,21,1,1,1,0,0,0,0,0,0,0,1,0,1,0,0,0,0,0,0,0,0,0,0,0,0,0,1,0,1
surfandturfc279456824567,WcUS0B2iFLPAsdUZMwKkWw,Surf and Turf Cafe,101 N Franklin St,tampa,FL,33602,27.9456571,-82.4567437,"['seafood', 'restaurants']",3.0,5,0,1,1,0,0,0,0,0,0,0,1,0,0,0,0,0,0,0,0,0,0,0,0,0,0,0,0,0,0
publixsuperm282339827307,igz0LFaSoRef-t30luOx2Q,Publix Supermarket at Southgate Shopping Center,5127 US 19,new port richey,FL,34652,28.23398,-82.73072,['food'],3.0,16,1,1,1,0,0,0,0,0,1,0,1,0,1,1,0,0,0,0,0,0,0,0,0,0,0,0,0,0,1
lacasadepand280404825107,qRC7CkXf2jzEE-hyyEIElg,La Casa de Pan de Yuca,"4013 W Linebaugh Ave, Ste 101",tampa,FL,33624,28.0404766,-82.5107742,['food'],4.5,7,1,0,1,0,0,0,0,0,0,0,1,0,1,1,0,0,0,0,0,0,0,0,0,0,0,0,0,0,1
froyofreshxx280568826259,p9tB3Fiszn1HMLUE-97K4g,Froyo Fresh,12211 W Linebaugh Ave,tampa,FL,33626,28.0568259768,-82.6259098537,['food'],4.0,76,1,1,1,0,1,0,0,0,1,0,1,0,1,1,0,0,0,0,0,0,0,0,0,0,0,0,1,0,1
sayroosbaker279293824010,Egb5gh3QnLx70PCFmcaMPQ,Sayroo's Bakery and Grocery,2028 S 50th St,tampa,FL,33619,27.929337,-82.401051,['food'],4.5,18,1,0,1,0,0,0,0,0,0,0,1,0,1,1,0,0,0,0,0,0,0,0,0,0,0,0,0,0,1
basimobeachc279519828297,AaWmckcT3O1iQSAIUmzwUA,Basimo Beach Cafe,"1261 Gulf Blvd, Ste 120",clearwater,FL,33767,27.9519956663,-82.829717,"['restaurants', 'food']",4.0,339,1,1,0,1,0,1,0,0,1,1,0,1,1,1,1,1,0,0,1,0,0,0,1,0,0,1,1,0,1
stonefiretav278800827861,ryHhnOItSVPJB81Ty0Xb2g,Stonefire Tavern,10637 117th Dr N,largo,FL,33773,27.8800115344,-82.786168,"['chicken wings', 'restaurants']",4.0,59,0,0,1,0,0,1,1,1,1,0,1,0,1,1,0,0,0,0,1,0,0,0,1,1,1,0,1,0,1
sweetiesbymi280575825821,3WfH4I8OmHMjTIFhPgh4Tw,Sweeties By Mili,11961 Sheldon Rd,tampa,FL,33626,28.0575829,-82.5821986,['food'],3.5,16,0,0,0,0,0,0,0,0,0,0,1,0,1,1,0,0,0,0,0,0,0,0,0,0,0,0,0,0,1
sweetteacele277485827063,WaKfHU_aoT1g-Sic77Up2g,Sweet Tea Celebrations,5325 Gulfport Blvd S,gulfport,FL,33707,27.7485341,-82.706344,['food'],4.5,9,0,0,0,0,0,0,0,0,0,0,1,0,0,0,0,0,0,0,0,0,0,0,0,0,0,0,0,0,1
julianrestau279626825694,jcmqREAt1nOg3ABv4ZeD3w,Julian Restaurant,2545 N Rocky Point Dr,tampa,FL,33607,27.96264,-82.5694048,"['seafood', 'restaurants']",4.5,27,1,1,1,0,0,0,0,0,0,0,1,0,0,1,0,0,0,0,1,0,0,0,0,0,0,0,0,0,0
mcandersonsh280354826597,NJt2qvQ9NvB7uCxYUnW-dQ,McAnderson's House of Brews,"300 State St E, Ste 107",oldsmar,FL,34677,28.0354421,-82.6597432,['restaurants'],4.0,5,0,0,0,0,0,0,1,0,0,0,1,0,0,1,0,0,0,0,1,0,0,0,0,0,1,0,0,0,1
fiestamayame399142753478,nVI9wI9ujmrutJRMgHKSIg,Fiesta Maya Mexican Grill,1178 Baltimore Pike,springfield,FL,19064,39.9142377,-75.3478566,"['mexican', 'restaurants']",4.5,130,0,0,1,0,0,1,0,0,1,1,0,0,0,1,0,1,1,0,1,0,0,0,1,0,1,1,0,0,1
goldencorral282871827123,vVvtWcFResspvcMMNRbYWA,Golden Corral Buffet & Grill,8928 US Hwy 19,port richey,FL,34668,28.287119,-82.712339,['restaurants'],3.0,50,0,1,1,0,1,0,0,0,1,0,1,0,1,1,1,1,1,1,1,0,0,0,1,0,1,1,0,0,1
jrfarmsxxxxx282072822121,NiSehpyi6ouu6qB086NW-g,J R Farms,36530 Chancey Rd,zephyrhills,FL,33541,28.207279,-82.212104,['food'],4.5,7,0,0,0,0,0,0,0,0,0,0,1,0,1,1,0,0,0,0,0,0,0,0,0,0,0,0,0,0,1
wingstopxxxx362649867125,AuTmUY381to83xPwovoERg,Wingstop,127 Gallatin Pike N,madison,FL,37115,36.2649788207,-86.712538285,"['chicken wings', 'restaurants']",2.5,31,1,1,1,0,0,0,0,0,1,1,0,0,1,0,0,0,0,0,1,0,0,0,1,0,1,1,0,0,1
amoremioxxxx280098824840,jWcVzCpSayMyIPMniHpQjg,Amore Mio,6803 N Armenia Ave,tampa,FL,33604,28.0098837,-82.4840114,"['restaurants', 'pizza', 'italian']",4.0,29,0,1,1,0,0,0,0,0,0,0,1,0,0,0,0,0,0,0,0,0,0,0,0,0,1,1,1,0,1
yosushixxxxx279645825207,v8IbZ6wcvdyGqWpbDKDvfA,YO! Sushi,"International Plz, 2223 N Westshore Blvd",tampa,FL,33607,27.964536,-82.520756,"['japanese', 'restaurants']",4.0,121,0,1,1,0,0,1,1,0,0,0,1,0,1,1,0,1,1,0,1,0,0,0,1,0,1,1,1,0,1
coreysbakery282171827017,yl_gnP_iQp2TaOTnMPHh0w,Corey's Bakery,6815 State Road 54,new port richey,FL,34653,28.217115,-82.701718,['food'],5.0,19,1,1,1,0,0,1,0,0,0,0,1,0,1,1,0,0,0,0,0,0,0,0,0,0,0,0,1,0,1
thefishinchi279783825495,Pl0Ei394GwSpHDU2oTU5hQ,The Fishin Chicken Food Truck,,tampa,FL,33634,27.9783358359,-82.5495612994,['food'],3.5,11,1,0,1,0,0,0,0,0,1,0,1,0,0,0,0,0,0,0,0,0,0,0,0,0,0,0,0,0,1
saltylimecan280783827666,0t14RIHl4wODz7LRiRRQ0Q,Salty Lime Cantina,1019 Florida Ave,palm harbor,FL,34683,28.0783137,-82.7666322,"['tex-mex', 'restaurants', 'mexican']",4.5,103,1,0,1,1,0,1,0,0,1,0,1,0,0,1,0,0,0,0,0,0,0,0,0,0,0,0,0,0,0
paradisepizz280330824077,5fvs7pOE6amG17SiPovxjw,Paradise Pizza Cafe,"4810 E Busch Blvd, Ste L&M",tampa,FL,33617,28.0330086,-82.4077832,"['restaurants', 'mediterranean', 'pizza', 'turkish']",2.5,7,1,1,1,0,0,0,0,0,0,0,1,0,0,1,0,0,0,0,0,0,0,0,0,0,0,0,0,0,0
eatsamerican279025825056,VZfc50XVwgdCecH4YbGNFg,EATS! American Grill,4502 S Dale Mabry Hwy,tampa,FL,33611,27.902583,-82.505631,['restaurants'],4.0,323,0,1,1,1,0,0,1,0,0,0,1,0,1,1,0,1,1,0,1,0,0,0,1,0,1,1,1,0,1
tripsdinerxx278399827854,gzln_L7ch8z-Ob6autmumw,Trip's Diner,10555 Park Blvd,seminole,FL,33772,27.8399412788,-82.7854389294,['restaurants'],4.0,223,1,0,1,1,0,1,0,0,1,0,1,0,1,1,1,1,0,0,1,0,0,0,1,0,1,1,1,0,1
newhongkongc278718827601,idRTl_xdqB12GWXIsisW-g,New Hong Kong Chinese Restaurant,"10801 Starkey Rd, Ste 5",seminole,FL,33777,27.87184,-82.760131,"['restaurants', 'chinese']",2.5,18,1,1,1,0,0,0,0,0,0,0,1,0,0,1,0,0,0,0,1,0,0,0,1,0,1,1,0,0,1
oldcountrybu399146753336,opiv3hcNNsRDiLXsUbNw-A,Old Country Buffet,910 E Woodland Ave,springfield,FL,19064,39.914661,-75.333685,['restaurants'],3.0,5,0,0,1,0,0,0,0,0,0,0,1,0,0,1,0,0,0,0,0,0,0,0,0,0,1,0,0,0,0
breakfastclu283052827011,0oogOBGXNj39Wnl2SKoe0w,Breakfast Club,10150 US Highway 19,port richey,FL,34668,28.3052669,-82.7011217,"['restaurants', 'food']",4.5,80,1,1,1,0,0,0,0,0,0,0,1,0,1,1,0,1,0,0,1,0,0,0,1,0,1,1,1,0,1
odessafamily280920825785,u-QBVccU0cRK1pehKL4n0g,Odessa Family Restaurant,8741 Gunn Hwy,odessa,FL,33556,28.0920633,-82.5785573,['restaurants'],2.5,17,0,0,1,0,0,0,0,0,0,0,1,0,0,1,0,0,0,0,1,0,0,0,1,0,0,0,0,0,0
chinawokxxxx280571826237,a8eIw8vCk-kIe__G6NUfaA,China Wok,10714 Countryway Blvd,tampa,FL,33626,28.0571712,-82.6237785,"['chinese', 'restaurants']",3.5,17,0,1,1,0,0,0,0,0,0,0,1,0,0,1,0,0,0,0,1,0,0,0,1,0,0,1,0,0,1
thelittlelam280114827109,tXf6TpqHOLiwyMNbYAOOCQ,The Little Lamb,"2475 N McMullen Booth Rd, Ste J",clearwater,FL,33759,28.0114224507,-82.7109746614,['restaurants'],4.5,307,1,0,1,1,0,1,0,0,0,0,1,0,1,1,0,1,1,1,1,0,0,1,1,0,1,0,1,0,1
villagiocine280552825062,WQ832PDnsDshhbQFm83ISg,Villagio Cinemas,11778 N Dale Mabry Hwy,tampa,FL,33618,28.055282,-82.506247,"['pizza', 'italian', 'restaurants']",3.0,285,1,1,1,0,0,1,0,0,0,0,1,0,1,1,0,0,1,0,1,0,0,0,1,0,1,1,1,0,1
captaindsxxx364922868753,3GGGwkQ8A0ICQTfwTKPiQw,Captain D's,2123 Memorial Blvd,springfield,FL,37172,36.4922337558,-86.875317026,"['fish & chips', 'seafood', 'restaurants']",2.0,10,1,1,1,0,0,1,0,0,0,1,0,0,0,1,0,0,0,0,0,0,0,0,1,0,1,1,0,0,1
twisteetreat281440823539,TTsBa6e2qgIEkiFQfYLmYA,Twistee Treat - New Tampa,8810 New Tampa Blvd,tampa,FL,33647,28.1440679511,-82.3539949058,"['food', 'restaurants']",3.5,70,1,0,1,1,0,1,0,0,0,0,1,1,1,1,0,0,0,0,0,0,0,0,1,0,1,1,0,0,1
dunkinxxxxxx277139823764,ws-gbVjt56zCQC-CR5pjTQ,Dunkin',717 Cypress Village Blvd,ruskin,FL,33573,27.7139046,-82.3764519,['food'],2.5,29,1,1,1,1,0,0,0,0,0,0,1,0,1,1,0,0,0,0,0,0,0,0,0,0,0,0,1,0,1
zaxbyschicke280146826140,j5U5O3scMvPe67jzJcWFug,Zaxby's Chicken Fingers & Buffalo Wings,11619 W Hillsborough Ave,tampa,FL,33635,28.0146920537,-82.6140054742,"['restaurants', 'chicken wings']",3.0,37,1,1,1,0,1,0,0,0,0,0,1,0,1,1,0,1,0,0,1,0,0,0,1,0,1,1,1,0,1
suzieqsdiner278555827877,3raJa_XvtP3biGDw1gFJ5Q,Suzie Q's Diner,9124 Seminole Blvd,seminole,FL,33772,27.8555338,-82.7877341,['restaurants'],4.0,26,0,1,1,0,0,0,0,0,0,0,1,0,1,1,1,1,0,0,1,0,0,0,1,0,0,1,0,0,1
kobejapanese277969827278,HJe8eEH5qXRjQMAh1VfV_w,Kobe Japanese Steakhouse,2773 66th St N,st. petersburg,FL,33710,27.7969526,-82.7278308,"['japanese', 'restaurants', 'teppanyaki']",4.5,91,1,1,1,0,0,0,1,0,0,0,1,0,0,1,0,0,0,0,1,1,0,1,1,0,1,0,0,0,1
guweinoodles281316823691,_uQEKHH0R5fxrYkLrUI9pQ,Gu Wei Noodles & Grill,"18101 Highwoods Preserve Pkwy, Ste 100",tampa,FL,33647,28.1316091,-82.3691327,"['restaurants', 'chinese']",4.5,40,1,1,1,0,0,1,0,0,1,0,1,0,0,1,0,0,0,0,0,0,0,0,0,0,0,0,1,0,1
pitasrepubli277931823354,Y_XyeCu8AkZyhcF0q5n8Dg,Pitas Republic,13145 US Hwy 301 S,riverview,FL,33578,27.7931488,-82.3354053,['restaurants'],5.0,5,1,1,1,0,0,0,0,0,0,0,1,0,0,1,0,0,0,0,0,0,0,0,1,0,0,1,0,0,0
subwayxxxxxx281501823539,gi90NMmRhzl8vzM83UNOVA,Subway,19410 N Bruce B Downs Blvd,tampa,FL,33647,28.15011,-82.3539970377,"['food', 'restaurants']",3.0,14,1,1,1,0,0,0,0,0,1,0,1,0,0,0,0,0,0,0,1,0,0,0,1,0,1,1,1,0,1
nybagelcafed399245753392,lYxKXvDZGX9a3RwGuu0tPA,NY Bagel Cafe & Deli,11 E Woodland Ave,springfield,FL,19064,39.9245288,-75.3392149,"['restaurants', 'food']",3.0,6,0,1,1,0,0,0,0,0,1,1,0,0,1,1,0,0,0,0,0,0,0,0,1,0,0,0,1,0,1
zekosmediter280322824189,I1h0GRYp86eX-XqwVXsSGA,Zeko's Mediterranean Grill,3609 E Busch Blvd,tampa,FL,33612,28.0322261,-82.4189253,"['restaurants', 'falafel', 'mediterranean', 'middle eastern', 'halal', 'greek']",4.5,345,1,1,1,0,1,0,0,0,1,1,0,0,1,1,0,1,1,0,1,0,0,0,1,0,1,1,1,0,1
cvspharmacyx280604825410,BezmFrbIu1g2GpjngB2geA,CVS Pharmacy,5632 Gunn Hwy,tampa,FL,33624,28.0604,-82.541,['food'],2.0,18,1,1,0,0,1,1,0,0,0,0,1,0,1,1,0,0,0,0,0,0,0,0,0,0,0,0,0,0,1
mexicolindox278386827173,kJpoduG3wdA35WzOF_T1Aw,Mexico Lindo,6050 Park Blvd,pinellas park,FL,33781,27.838651,-82.7173312,"['food', 'restaurants', 'mexican']",4.5,54,1,0,1,1,0,0,0,0,0,0,1,0,1,1,0,1,0,0,1,0,0,0,1,0,1,1,0,0,1
burgerkingxx278937825193,J8j18KB--ZH4MjTQryPEpA,Burger King,4403 W Gandy Blvd,tampa,FL,33611,27.8937618,-82.5193236,['restaurants'],2.0,11,1,1,0,0,0,0,0,0,0,0,1,0,0,1,0,0,0,0,0,0,0,0,1,0,0,1,0,0,1
circlekxxxxx278685826463,WQAvCYm8BNMO1L2pMbkW-g,Circle K,10600 Roosevelt Blvd N,st. petersburg,FL,33716,27.8685765304,-82.6463322025,['food'],2.5,8,0,1,0,0,0,0,0,0,0,0,1,0,1,1,0,0,0,0,0,0,0,0,0,0,0,0,0,0,1
superchinach282833826778,nteD5A6CKXZPqbR9EltQng,Super China Chinese Restaurant,8663 Little Rd,port richey,FL,34654,28.283355,-82.677826,"['restaurants', 'chinese']",4.0,54,1,1,1,0,0,0,0,0,0,0,1,0,1,0,0,0,0,0,1,0,0,0,1,0,1,1,0,0,1
mcdonaldsxxx277137823929,cwvpVlg5BE2XXRWTHe3p9w,McDonald's,3110 Sr 674,sun city center,FL,33570,27.7137051861,-82.3929427564,"['food', 'restaurants']",2.0,24,1,1,1,0,1,0,0,0,0,0,1,0,0,1,1,0,0,0,1,0,0,0,1,0,1,1,1,0,1
winndixiexxx281833827391,V3e1h5A4QdscxeChOxri4Q,Winn-Dixie,1640 US Highway 19,holiday,FL,34691,28.1833634069,-82.7391889274,['food'],3.0,9,1,1,1,0,0,0,0,0,0,0,1,0,1,0,0,0,0,0,0,0,0,0,0,0,0,0,0,0,1
jjsbarbequex279472824586,reOj4e7RuKbx6LAuNUccVw,JJ's Barbeque,,oldsmar,FL,34766,27.9472,-82.4586,['food'],4.5,7,1,0,0,0,0,0,0,0,0,0,1,0,0,1,0,0,0,0,0,0,0,0,0,0,0,0,0,0,1
dtownbargril280192827748,nIE7ph1w_bttQMJQx5hUEQ,D-Town Bar & Grill,1056 Main St,dunedin,FL,34698,28.0192509782,-82.774851719,['restaurants'],3.0,91,1,1,1,0,0,1,1,0,0,0,1,0,1,1,0,0,0,0,1,0,0,0,1,0,1,1,1,0,1
ananibistrox277389827075,WJIc6ZlR-pd9W-Vt-rRtzA,Anani Bistro,3062 Beach Blvd S,gulfport,FL,33707,27.7389646,-82.7075848,"['restaurants', 'food']",4.5,17,1,0,1,1,0,1,1,0,0,1,0,1,1,1,0,0,0,0,0,0,0,0,1,0,0,0,1,0,1
guidositalia284918825973,SZgkdhd837HkbtVFVmSMXw,Guido's Italian Restaurant,7219 Forest Oaks Blvd,spring hill,FL,34606,28.4918471,-82.5973869,"['pizza', 'restaurants', 'italian']",3.5,128,1,1,1,1,0,1,0,0,1,0,1,0,1,1,0,1,1,0,1,0,0,0,1,0,1,1,0,0,1
sulasxxxxxxx279602824414,ov-hBIrfk_f1_UdKzu_Nrw,Sulas,1605 E 7th Ave,tampa,FL,33605,27.9602066,-82.4414592,"['restaurants', 'cuban']",4.0,7,0,0,1,1,0,0,0,0,0,0,1,0,0,0,0,0,0,0,1,0,0,0,0,0,1,1,0,0,1
abcpizzahous279955824743,p21PCK17H3WL56KSr4Ykig,ABC Pizza House,1242 W Hillsborough Ave,tampa,FL,33603,27.99554,-82.4743805,"['restaurants', 'pizza']",4.0,121,1,1,1,0,0,1,0,0,1,0,1,0,1,1,0,1,1,0,1,0,0,0,1,0,1,1,0,0,1
lanzhoulamen280554824292,3n_G-_DwOJ2VS4uGxBN6sg,Lan Zhou Lamen,2716 E Fowler Ave,tampa,FL,33612,28.0554349,-82.4292524,"['chinese', 'seafood', 'chicken wings', 'restaurants']",4.0,78,1,0,0,0,0,0,0,0,0,0,1,0,0,1,0,0,1,0,1,0,0,0,0,0,1,0,0,0,1
seasonsfresh280812824279,mKZEuPNLVe4yRL0UfxFPTg,Season's Fresh,2816 E Bearss Ave,tampa,FL,33613,28.0812683681,-82.4279611613,"['modern european', 'restaurants', 'food']",4.5,104,0,1,1,1,0,1,0,0,1,1,0,1,0,0,0,0,0,0,1,0,0,0,1,0,1,1,1,0,1
thaifastfood279120825057,AODksDNj5mH953cyhUG1Qw,Thai 5 Fast Food,3424 S Dale Mabry Hwy,tampa,FL,33629,27.9120596,-82.5057677,"['asian fusion', 'food', 'restaurants', 'thai']",4.0,336,1,1,1,1,0,1,0,0,1,1,0,0,1,1,0,1,1,0,1,0,0,0,1,0,1,1,1,0,1
osakaxxxxxxx278020828020,RWOqFGfUrdL60jOrtxmcGw,Osaka,15115 Madeira Way,madeira beach,FL,33708,27.8020018,-82.8020813,['restaurants'],4.0,49,0,0,1,0,0,0,0,0,0,0,1,0,1,1,0,0,0,0,1,0,0,0,1,0,1,1,0,0,1
mahalbazaarx279183827607,qALmCdmmcRHl7gAXMoY30w,Mahal Bazaar,2480 E Bay Dr,largo,FL,33771,27.918379,-82.7607554,['food'],3.5,13,0,0,0,0,0,0,0,0,0,0,1,0,0,0,0,0,0,0,0,0,0,0,0,0,0,0,0,0,1
steaknshakex282899827112,sVWUxesVKseXGq78UwwajA,Steak ’n Shake,9116 US Highway 19 N,port richey,FL,34668,28.2899929559,-82.711233436,['restaurants'],2.5,45,1,1,1,0,1,0,1,0,0,0,1,0,1,1,0,0,0,0,1,0,0,0,1,0,1,1,1,0,1
cakesplusxxx280429825929,YNAjAJFVqbbQsWBu10keGw,Cakes Plus,9612 W Linebaugh,tampa,FL,33626,28.0429222361,-82.5929463254,['food'],4.0,27,0,0,1,0,0,1,0,0,0,0,1,0,1,0,0,0,0,0,0,0,0,0,0,0,0,0,1,0,1
wendysxxxxxx278790828327,1lC4dy6jlB2tBdBWbocO7Q,Wendy's,11760 Oakhurst Road,largo,FL,33774,27.8790638,-82.8327419,['restaurants'],2.0,22,1,1,1,1,0,0,0,0,0,0,1,0,1,0,0,0,0,0,1,0,0,0,1,0,1,1,1,0,1
winndixiexxx280268825843,cLdbIdRXI-dJUwdlvMobkg,Winn Dixie,8424 Sheldon Rd,tampa,FL,33615,28.0268409533,-82.5843045032,['food'],3.0,10,0,0,0,0,0,0,0,0,0,0,1,0,1,1,0,0,0,0,0,0,0,0,0,0,0,0,0,0,1
stefanogreek280280823938,o6jfwLREaGy1mwAEybjOkg,Stefano Greek Italian Restaurant,8600 N 56th St,tampa,FL,33617,28.0280199569,-82.393829897,"['food', 'restaurants', 'greek', 'italian']",4.0,106,1,0,1,0,0,1,0,0,1,0,1,0,1,1,0,1,1,0,1,0,0,0,1,0,1,1,0,0,1
firstwatchxx280449826805,zBHAoHU-SD7wECkKpTGImg,First Watch,3691 Tampa Rd,oldsmar,FL,34677,28.0449208,-82.68053,['restaurants'],4.0,93,1,1,1,1,0,0,0,0,0,0,1,0,0,0,1,1,0,0,1,0,0,1,1,0,1,0,1,0,1
walgreensxxx282383826715,zK2mxCWqqmjvtElDGEnkOw,Walgreens,5432 Little Rd,new port richey,FL,34655,28.2383396691,-82.6715387218,['food'],4.0,5,1,0,1,0,1,0,0,0,0,0,1,0,0,1,0,0,0,0,0,0,0,0,1,0,0,0,0,0,1
thesweettaco399357753516,gu9H6XoryCn07BfPsSdeSw,The Sweet Taco,781 W Sproul Rd,springfield,FL,19064,39.9357331,-75.3516435,"['restaurants', 'food', 'mexican']",3.0,153,0,0,1,0,0,0,1,0,1,0,1,0,1,1,0,1,1,1,1,0,0,0,1,0,1,1,1,0,1
jbsislandcaf279796828266,JeoIxdzt5E3QXT1KHXR2oA,JB'S Island Cafe,432 Poinsettia Ave,clearwater,FL,33767,27.9796975,-82.8266376,"['food', 'restaurants']",4.0,37,0,0,1,1,0,0,0,0,0,0,1,0,1,1,1,0,0,0,1,0,0,0,1,0,1,1,1,0,1
hiroisoceang280163827355,76x9L8ZBoF4skcNP8wx4nw,Hirois Ocean Grill,"27001 US 19 N, Suite 1071",clearwater,FL,33761,28.0163208421,-82.7355802059,"['japanese', 'restaurants']",4.0,6,0,0,1,0,0,0,0,0,0,0,1,0,0,0,0,0,0,0,1,0,0,0,1,0,1,1,0,0,1
racetracxxxx279610827194,cpjv8YS2DMNIRK6C2MWmIg,RaceTrac,2854 Gulf To Bay Blvd,clearwater,FL,33759,27.9610047,-82.7194345,['food'],3.5,8,1,1,1,0,0,0,0,0,0,0,1,0,0,1,0,0,0,0,0,0,0,0,0,0,0,0,1,0,1
fivestarpizz280481823942,Xsvi9wYhD7u5XrK2EKDd8w,Five Star Pizza,10926 N 56th St,tampa,FL,33617,28.0481913,-82.3942796,"['pizza', 'restaurants']",4.0,95,1,1,1,1,0,0,0,0,0,0,1,0,1,0,0,0,0,0,1,0,0,0,1,0,1,1,0,0,1
caprichosxxx280331824076,Uq1o6DXKALmjdElXp4mEtQ,Capricho’s,"4810 E Busch Blvd, Ste F",tampa,FL,33617,28.033191048,-82.4076666194,"['restaurants', 'dominican', 'caribbean', 'food']",5.0,8,1,0,0,0,0,0,0,0,0,0,1,0,0,1,0,0,0,0,0,0,0,0,0,0,0,0,0,0,0
ranchhousere279962825670,s4VzQaUCrgwPuViQYOqC2w,Ranch House Restaurant,7706 W Hillsborough Ave,tampa,FL,33615,27.9962535,-82.5670403,"['restaurants', 'food']",3.5,39,1,1,1,0,0,1,0,0,1,0,1,0,1,1,0,0,0,0,1,0,0,0,1,0,1,1,1,0,1
simplydonedo279260825061,IRkQtjBxgVEqAOdtjgi6hQ,Simply Done Donuts,2109 S Dale Mabry Hwy,tampa,FL,33629,27.9260137,-82.5061947,['food'],5.0,77,1,0,1,0,0,1,0,0,1,0,1,0,0,0,0,0,0,0,0,0,0,0,0,0,0,0,1,0,1
jessessteaka279381822920,ZpXZgnBrNodHH8pKpOK_Kg,Jesse's Steak and Seafood,524 W Brandon Blvd,brandon,FL,33511,27.9381358,-82.2920736,"['restaurants', 'seafood']",4.0,267,1,0,1,0,0,0,1,0,1,0,1,0,0,1,0,1,1,0,1,0,0,0,1,0,1,1,0,0,1
dunkinxxxxxx399438753487,SpKppNFimODBt-BZ0c2WbA,Dunkin',819 W.Sproul Rd,springfield,FL,19064,39.943857107,-75.3487932199,['food'],4.0,10,1,1,1,0,0,0,0,0,0,0,1,0,1,1,0,0,0,0,0,0,0,0,0,0,0,0,1,0,1
kulsbargrill278952827115,xCbhjDqmrCrP1qK4DADu8g,Kul's Bar & Grill,13575 58th St N,clearwater,FL,33760,27.8952690666,-82.7115350796,"['latin american', 'restaurants']",3.0,6,0,0,1,1,0,1,0,0,1,0,1,0,1,1,0,0,0,0,1,0,0,0,1,0,1,1,1,0,1
saltyshamroc277748824093,RG4FoRw0vjzrCjMl4Apk4A,Salty Shamrock Fishing Charters and Events,6186 Apollo Beach Blvd,apollo beach,FL,33572,27.7748077067,-82.4093934149,"['seafood', 'restaurants']",4.0,12,1,0,0,0,0,0,0,0,0,0,1,0,0,1,0,0,0,0,0,0,0,0,0,0,0,0,0,0,1
tokisushixxx280774825059,OIES_WhdNux3PmvSuPM-8Q,Toki Sushi,14313 N Dale Mabry Hwy,tampa,FL,33618,28.0774196,-82.5059947,"['restaurants', 'japanese']",4.0,106,1,0,1,0,0,0,0,0,1,0,1,0,1,1,0,0,1,0,1,0,0,0,1,0,1,1,0,0,1
craftcurdxxx278932824907,iWIu2qrim1PSNE0CRLyqpg,Craft & Curd,"2908 W Gandy Blvd, Ste B",tampa,FL,33611,27.8932249,-82.4907101,['food'],4.5,44,1,0,1,0,0,1,1,0,0,0,1,0,0,1,0,0,0,0,0,0,0,0,0,0,1,0,0,0,1
alvarezauthe282699824808,J1pqZt0WWCL8cOt0eixBEw,Alvarez  Authentic Latin Food,7715 Land O' Lakes Blvd,land o' lakes,FL,34638,28.2699738723,-82.4808749557,"['restaurants', 'vegetarian', 'latin american', 'mexican']",4.5,51,1,0,1,1,0,1,0,0,1,0,1,0,1,0,0,0,0,0,1,0,0,0,1,0,1,1,0,0,1
shortysbreak279519828296,_ReMedGR8eDM5AgdRK0jCw,Shorty's Breakfast & Gourmet Deli,"1261 Gulf Blvd, Ste 125",clearwater,FL,33767,27.9519833,-82.829696,"['cuban', 'food', 'restaurants']",4.5,68,1,0,1,1,0,1,0,0,1,0,1,1,1,1,0,1,0,0,1,0,0,0,1,0,1,1,1,0,1
preachersbbq277828826386,coQA2WS-e4RfsZYIgBKkaQ,Preachers BBQ,1040 Fourth St N,st. petersburg,FL,33701,27.7828863,-82.6386889,['restaurants'],3.5,5,0,0,1,0,0,0,0,0,0,0,1,0,0,0,0,0,0,0,1,0,0,0,0,0,1,0,0,0,1
junglebillst279612827147,qt1o4H9O9lBwqf3K7GGFag,Jungle Bills Tiki Grill,2950 Gulf To Bay Blvd,clearwater,FL,33759,27.9612023,-82.7147014,['restaurants'],4.5,15,0,0,1,1,0,0,1,1,1,0,1,0,1,1,0,0,0,0,1,0,0,0,1,0,1,1,1,0,1
yahmonxxxxxx279422824629,w0lcP2ngFaUpBGi5yzlYDw,Yah Mon,"301 W Platt St, Unit C",tampa,FL,33606,27.9422145,-82.4629632,"['restaurants', 'caribbean']",4.5,697,1,1,1,0,0,1,0,0,1,0,1,0,1,1,0,0,1,0,1,0,0,1,1,0,1,1,1,0,1
hiccupschurr280645825057,UGebrYgNZrMzbGbcI01JWA,Hiccups & Churroholic,13030 N Dale Mabry Hwy,tampa,FL,33618,28.0645829885,-82.5057124,"['restaurants', 'chicken wings', 'food', 'asian fusion']",4.5,108,1,1,1,1,0,0,0,0,0,0,1,0,0,0,0,0,0,0,0,0,0,0,0,0,0,0,0,0,0
ricosfoodfac281789827433,yP-93hQPe8q8a4D-HlP1dg,Rico’s Food Factory,1402 US Hwy Alt 19,holiday,FL,34691,28.1789028,-82.743308,"['food', 'caribbean', 'puerto rican', 'restaurants']",5.0,6,1,1,1,0,0,0,0,0,0,0,1,0,0,1,0,0,0,0,0,0,0,0,0,0,0,0,0,0,0
tokyoxxxxxxx279969825701,EjFp57Nd4bVgb5GNn-XnuA,Tokyo,7911 W Hillsborough Ave,tampa,FL,33615,27.9969683,-82.5701668,"['chinese', 'japanese', 'restaurants']",3.5,155,1,1,1,1,0,1,0,0,1,0,1,0,1,1,0,1,1,0,1,0,0,0,1,0,1,1,0,0,1
jasminethaix279213823168,9dGzGbNKLMP0_wOqI5GffQ,Jasmine Thai,1947 Wlumsden Rd,brandon,FL,33511,27.9213164796,-82.3168221354,"['restaurants', 'thai']",4.0,195,1,1,1,0,0,0,0,0,1,0,1,0,1,1,0,1,1,0,1,0,0,0,1,0,1,1,0,0,1
marshsuperma395748861600,9FxJE_UeJMlEKn7g7qkc7Q,Marsh Supermarket,2904 S State Road 135,greenwood,FL,46143,39.5748164285,-86.1600039992,['food'],3.0,9,0,0,0,0,0,0,0,0,0,0,1,0,0,1,0,0,0,0,0,0,0,0,0,0,0,0,0,0,1
krabkingzxxx387284902760,Mnr3Qp-sPIpuIjKzENqxVg,Krab Kingz,8021 W Florissant Ave,jennings,FL,63136,38.7284109,-90.2760008,"['seafood', 'restaurants']",2.5,18,1,1,1,0,0,0,0,0,0,0,1,0,0,0,0,0,0,0,0,0,0,0,0,0,0,0,0,0,0
buddybrewhyd279361824761,Envz99GhwMkfMg7LzDQeUQ,Buddy Brew - Hyde Park,1605 W Snow Ave,tampa,FL,33606,27.9361321,-82.4761962,['food'],4.0,148,1,0,1,1,0,1,1,0,1,0,1,0,1,1,0,0,0,0,0,0,0,0,0,0,0,0,1,0,1
angiesrestau279654827960,Jvmj49D0GGnvCpjN0LXqEg,Angie's Restaurant,725 Cleveland St,clearwater,FL,33755,27.9654261,-82.796093,['restaurants'],4.0,55,1,0,1,0,0,0,0,0,0,0,1,0,1,1,1,1,0,0,1,0,0,0,1,0,0,1,0,0,1
brendasonthe280512827872,7enJKZ9W2Vkq62ryK28taQ,Brenda's On the Causeway,314 Causeway Blvd,dunedin,FL,34698,28.0512415718,-82.7872824669,"['food', 'restaurants']",4.0,62,1,0,1,0,0,0,0,0,0,0,1,0,1,1,1,0,0,0,1,0,0,0,1,0,0,1,1,0,1
dunkinxxxxxx401117748541,4oI4ikLPM6yDyw0QUrv53Q,Dunkin',5007 Bristol Pike,bristol,FL,19007,40.1117319,-74.8541626,['food'],2.5,5,1,1,1,0,0,0,0,0,0,0,1,0,0,0,0,0,0,0,0,0,0,0,0,0,0,0,1,0,0
raysvegansou277676826402,siwG4ZM7RjUDO52DI84m3w,Ray's Vegan Soul,,st. petersburg,FL,,27.7676008,-82.6402915,"['vegan', 'restaurants']",5.0,5,1,0,1,0,0,0,0,0,0,0,1,0,0,1,0,0,0,0,0,0,0,0,0,0,0,0,0,0,0
jerrysdrivet280567824793,yCJsChGarOVOAOIuQtrK3w,Jerry's Drive Thru,11721 N Armenia Ave,tampa,FL,33612,28.0567197,-82.4793405,['food'],3.0,5,1,0,0,0,0,0,0,0,0,0,1,0,1,0,0,0,0,0,0,0,0,0,0,0,0,0,0,0,1
islandbreeze362526867183,QVbv447epxdOBOHK7loQPA,Island Breeze Cafe,936 Gallatin Pike S,madison,FL,37115,36.252601,-86.718393,"['caribbean', 'restaurants']",4.5,12,0,1,1,0,0,0,0,0,1,0,1,0,0,1,0,0,0,0,1,0,0,0,1,0,1,1,1,0,1
submarinegyr279822823734,5fqP38clcV-paOJL74SuVA,Submarine Gyro Town,4008 Orient Rd,tampa,FL,33610,27.9822819,-82.3734122,"['greek', 'restaurants']",3.5,12,1,0,1,0,0,0,0,0,0,0,1,0,0,1,0,1,0,0,1,0,0,0,1,0,0,0,0,0,1
nicksgyrosan279958824213,bN7KQSVbEmRVJnQEkl3vkw,Nicks Gyros and Subs,3501 E Hillsborough Ave,tampa,FL,33610,27.9958027,-82.4213829,"['restaurants', 'seafood']",3.5,29,1,0,1,0,0,0,0,0,1,0,1,0,1,1,0,0,1,1,1,0,0,0,1,0,1,1,0,0,1
rousesxxxxxx299196900508,e375M1YLD3vfNE6lf_ynCg,Rouses,508-730 Stumpf Blvd,gretna,FL,70053,29.919658,-90.050898,['food'],3.5,22,1,0,1,0,0,0,0,0,0,0,1,0,1,0,0,0,0,0,0,0,0,0,0,0,0,0,0,0,1
iriebaycafex279430823365,gEltZpDpY54boc3SaerMtg,Irie Bay Cafe,10041 E Adamo Dr,tampa,FL,33619,27.9430052,-82.3365132,"['caribbean', 'restaurants']",3.5,16,0,0,1,0,0,0,0,0,0,0,1,0,1,0,0,0,0,0,1,0,0,0,1,0,1,1,1,0,1
fratellixxxx402149751432,RdCkOekwvalnr6krftX46g,Fratelli,112 Easton Rd,warrington,FL,18976,40.214962,-75.143244,"['pizza', 'restaurants']",3.0,8,1,1,1,0,0,0,0,0,0,0,1,0,0,1,0,0,0,0,0,0,0,0,1,0,1,1,0,0,1
frankiesdeli279898827563,LAOdChV60GwEJHE7UwDKyw,Frankie's Deli,"1969 Sunset Point Rd, Ste 10",clearwater,FL,33765,27.9898789,-82.7563766,['restaurants'],3.5,26,1,1,1,0,0,0,0,0,1,0,1,0,0,0,0,1,0,0,1,0,0,0,1,0,1,1,1,0,1
theenerjuice279451824978,C1QkJ4s_p3hMTrvOgM7ssA,The Enerjuicer,3309 W Kennedy Blvd,tampa,FL,33629,27.9451157,-82.4978944,"['food', 'vegan', 'restaurants']",3.5,122,1,1,1,0,0,1,0,0,1,0,1,1,1,1,1,1,0,0,1,0,0,0,1,0,0,1,1,0,1
kuchisushihi280308825413,WO5nr-4sjVs506BdCLL0aA,Kuchi Sushi & Hibachi,9206 Anderson Rd,tampa,FL,33634,28.030876,-82.541377,"['restaurants', 'japanese', 'asian fusion', 'teppanyaki']",4.0,319,1,1,1,0,0,0,0,0,0,0,1,1,1,1,0,1,1,0,1,0,0,0,1,0,1,1,0,0,1
racewayxxxxx280216822451,q06uxedYSxuNIiULP63s8Q,Raceway 980,4660 McIntosh Rd,dover,FL,33527,28.021698,-82.245193,['food'],2.0,5,1,0,0,0,0,0,0,0,0,0,1,0,1,0,0,0,0,0,0,0,0,0,0,0,0,0,0,0,1
kfcxxxxxxxxx282771826739,0xe81EigRw_b5W8tg0Ca6Q,KFC,8242 Little Rd,new port richey,FL,34654,28.2771645,-82.673909,"['chicken wings', 'restaurants']",1.5,19,1,1,1,0,1,0,0,0,1,0,1,0,0,1,0,0,0,0,1,0,0,0,1,0,0,1,1,0,1
theflyingbri277304827449,k4gi0CDSas1glukpWHtoFg,The Flying Bridge,5500 Gulf Blvd,st. pete beach,FL,33706,27.730499285,-82.7449756747,['restaurants'],3.5,62,1,0,1,1,0,0,1,0,0,0,1,0,0,1,0,0,0,0,1,0,0,0,1,0,1,1,1,0,1
kallykssteak280198827603,W0IFKY22NruJ9dC02yvVqg,Kally K's Steakery & Fishery,1600 Main St,dunedin,FL,34698,28.0198079969,-82.7603502986,"['seafood', 'restaurants']",2.5,18,0,0,1,1,0,0,0,0,0,0,1,0,1,1,0,0,0,0,1,0,0,0,1,0,1,1,0,0,1
franksdinerx283917826677,QExWORi8kxwQGdXlFXRc-Q,Frank's Diner,"16103 US 19, 15925 US 19",hudson,FL,34667,28.391744,-82.667798,['restaurants'],3.0,30,0,0,1,0,0,0,0,0,0,0,1,0,1,0,0,1,0,0,1,0,0,0,1,0,1,1,0,0,1
rayssubsxxxx402519747763,f31Cl39cl2T-CwwqZoMGkQ,Ray's Subs,1540 Pennington Rd,trenton,FL,08618,40.2519978278,-74.7763186544,['restaurants'],3.5,39,1,1,1,0,0,0,0,0,1,0,1,0,1,1,0,1,0,0,1,0,0,0,1,0,1,1,0,0,1
walmartneigh280605827062,VE502_zHLb7kGDY7BK90yg,Walmart Neighborhood Market,3400 East Lake Rd,palm harbor,FL,34685,28.0605146,-82.7062547,['food'],3.5,18,1,1,0,0,0,0,0,0,0,0,1,0,1,1,0,0,0,0,0,0,0,0,0,0,0,0,0,0,1
qpotxxxxxxxx278344827278,VenhDgh9fRrh9c0Xq0LacQ,66 Q-pot,6851 66th St N,pinellas park,FL,33781,27.8344865813,-82.7278812626,"['korean', 'restaurants', 'hot pot']",4.0,113,0,0,0,0,0,1,0,0,0,0,1,0,1,1,0,1,1,0,1,0,0,0,1,0,1,1,1,0,1
subwayxxxxxx281469827414,iyI-PmAhYEktWu81_p3ukw,Subway,41220 US Hwy 19N,tarpon springs,FL,34689,28.146935335,-82.7414761083,['restaurants'],3.5,6,1,1,1,1,0,0,0,0,1,0,1,0,0,1,0,0,0,0,1,0,0,0,1,0,0,1,0,0,1
yamataiyojap280931827715,4ib9kGHlwqWPalWjh-dZhQ,Yama-Taiyo Japanese Cuisine & Sushi Bar,660 Alderman Rd,palm harbor,FL,34683,28.09319,-82.771565,"['restaurants', 'japanese']",4.0,49,1,1,1,0,0,0,0,0,0,0,1,0,0,1,0,0,0,0,1,0,0,0,1,0,1,1,0,0,1
pizzahutxxxx279179827346,uxJRSGuOpTv4g7U7gWANyw,Pizza Hut,5020 E Bay Dr,clearwater,FL,33764,27.9179833,-82.734651,"['chicken wings', 'restaurants', 'italian', 'pizza']",3.0,9,1,0,0,0,0,0,0,0,0,0,1,0,0,1,0,0,0,0,0,0,0,0,0,0,0,0,0,0,0
shangrilabat279967823913,fYnvhdWXgWit8DhDLPrSTQ,Shangri-La Bath & Sauna,5636 E Hillsborough Ave,tampa,FL,33610,27.996714,-82.3913739,['food'],4.5,85,1,0,0,0,0,0,0,0,0,0,1,0,1,1,0,0,0,0,0,0,0,0,1,0,0,0,0,0,1
elmanjarxxxx280153824855,aFOXqgKSeSCvq4UU0rPdHA,El Manjar,7218 N Armenia Ave,tampa,FL,33614,28.0153977,-82.4855275,"['restaurants', 'latin american']",4.0,17,1,0,1,0,0,0,0,0,0,0,1,0,0,1,0,0,0,0,1,0,0,0,1,0,1,1,0,0,1
eetgudbakery402280747093,H3p3b8nbB3OtIfQyQGKDkg,Eet Gud Bakery,2113 Hamilton Ave,trenton,FL,08619,40.228034,-74.709329,"['food', 'restaurants']",4.5,78,1,1,1,0,0,1,0,0,1,0,1,0,1,1,0,0,0,0,1,0,0,0,1,0,0,1,1,0,1
fitlifefoods281835823545,cAqNakznheceKWMs62lUKg,Fitlife Foods - Wesley Chapel,"1821 Bruce B Downs Blvd, Ste 111",wesley chapel,FL,33544,28.183548436,-82.3545080423,"['restaurants', 'food']",4.5,18,1,1,1,0,0,1,0,0,0,0,1,0,0,1,0,0,0,0,0,0,0,0,1,0,0,1,0,0,1
kimscubansan279811822976,g-0-_hPz-yr_f4gBFbX2Ow,Kim's Cuban Sandwich Shop,11911 E Martin Luther King Blvd,seffner,FL,33584,27.981183,-82.29767,"['food', 'latin american', 'restaurants', 'chicken wings', 'cuban']",4.0,39,1,1,1,1,0,1,0,0,1,0,1,0,1,1,0,0,0,0,1,0,0,0,1,0,0,1,1,0,1
tijuanaflats280199827329,Q4q9xFDxErreYTMrRshP_Q,Tijuana Flats,"2518 SR 580, Ste. A",clearwater,FL,33761,28.01992,-82.732923,"['restaurants', 'mexican', 'tex-mex', 'food']",3.5,89,1,1,1,1,0,0,0,0,1,0,1,0,1,1,0,1,1,0,1,0,0,0,1,0,1,1,0,0,1
popeyeslouis280695824338,z06yuwkwWjgXAxnlZKg1yw,Popeyes Louisiana Kitchen,2216 Fletcher Ave,tampa,FL,33612,28.069558,-82.433814,"['restaurants', 'chicken wings']",2.0,28,1,1,1,0,1,0,0,0,0,0,1,0,0,0,0,0,0,0,1,0,0,0,1,0,0,0,0,0,1
unionburgerx279800828279,SKph9ovzvVSNzNFICgKb1Q,Union Burger,454 Mandalay Avenue,clearwater,FL,33767,27.9800395966,-82.8279495239,['restaurants'],2.5,42,0,0,1,1,0,0,0,0,0,0,1,0,1,1,0,0,0,0,1,0,0,0,1,0,1,1,1,0,1
seadogcantin277414827076,Jr90GZ4uthyYp7407eyutQ,Sea Dog Cantina,2832 Beach Blvd S,gulfport,FL,33707,27.7414706131,-82.70766,"['mexican', 'restaurants']",3.5,63,1,1,1,1,0,1,1,0,1,0,1,1,1,1,0,0,0,0,0,0,0,0,0,1,0,0,1,0,1
madaverasori284651826194,pAnGtLoIkTplo2SnnrllTw,MadaVera's Original Hero & Bakery,2284 Commercial Way,spring hill,FL,34606,28.4651156061,-82.6194488956,"['restaurants', 'food']",4.5,18,0,1,1,1,0,1,0,0,1,1,0,1,1,1,0,0,0,0,1,0,0,0,1,0,0,1,1,0,1
americansoci279387824547,oqP1oQEycpp4J6u5YebRoQ,American Social,"601 S Harbour Island Blvd, Ste 107",tampa,FL,33602,27.9387071894,-82.4547521292,['restaurants'],3.5,768,1,1,0,1,0,1,1,0,1,0,1,1,1,1,0,1,1,0,1,0,0,1,1,0,1,0,1,0,1
robertsmeats279118825270,0l0R_1x2RC8pEwP-OG6UxA,Roberts Meats And Catering,3435 S West Shore Blvd,tampa,FL,33629,27.911868,-82.52705,"['restaurants', 'seafood', 'food']",3.5,72,0,1,1,0,0,1,0,0,1,1,0,0,1,1,0,1,0,0,1,0,0,0,1,0,0,1,1,0,1
xtmunchiesxx279992824508,uAbUh-mivr8AFoEbk-gANA,XT Munchies,5705 N Nebraska Ave,tampa,FL,33604,27.999241,-82.4508628,"['restaurants', 'mexican', 'food']",4.0,5,1,0,1,0,0,1,0,0,1,0,1,0,1,0,0,0,0,0,0,0,0,0,1,0,0,0,0,0,1
cosmicdonuts278933826803,PkY_jH73TMxy3y_OfziQfw,Cosmic Donuts,3400 Ulmerton Rd,clearwater,FL,33762,27.8933306,-82.6803662,['food'],4.5,7,0,0,1,0,0,0,0,0,0,0,1,0,0,1,0,0,0,0,0,0,0,0,0,0,0,0,0,0,1
cafécubaxxxx278958822468,VnQBbu2oco57NB36kFhC2w,Café Cuba,3240 Lithia Pinecrest Rd,valrico,FL,33596,27.895823,-82.246869,"['restaurants', 'cuban']",3.5,42,1,1,1,1,0,0,0,0,1,0,1,0,1,1,0,0,0,0,1,0,0,0,1,0,1,1,1,0,1
missmerriess281554827629,rqg0sxdEKBx5K8QNaz-ySw,Miss Merrie's Sweets & Treats,834 Dodecanese Blvd,tarpon springs,FL,34689,28.155453,-82.762929,['food'],4.0,7,1,0,0,0,0,0,0,0,0,0,1,0,0,1,0,0,0,0,0,0,0,0,0,0,0,0,0,0,0
bistroxxxxxx278470827289,Npw9ponCiJV9tjG5Bsp2Fg,Bistro66,8260 66th St N,pinellas park,FL,33781,27.8470217,-82.7289792,"['restaurants', 'italian', 'german']",4.5,7,0,1,1,0,0,0,0,0,0,0,1,0,0,1,0,0,0,0,0,0,0,0,1,0,0,1,0,0,1
thstreetpizz278014826378,iF_92LcvfJfrtwjHWhVb-Q,4th Street Pizza,3187 4th St N,st. petersburg,FL,33704,27.801446,-82.6378064,"['italian', 'pizza', 'food', 'restaurants']",3.0,67,1,1,1,0,0,1,0,0,1,1,0,0,1,1,0,0,0,0,1,0,0,0,1,0,1,1,0,0,1
hungryhowies279956824366,r7sU7DuN2wM1OyjLHe6_pg,Hungry Howie's Pizza & Subs,2001 E Hillsborough Ave,tampa,FL,33610,27.9956217,-82.4366429,"['chicken wings', 'italian', 'restaurants', 'pizza']",2.5,12,1,1,1,0,0,0,0,0,1,0,1,0,1,1,0,0,0,0,1,0,0,0,1,0,0,1,1,0,1
villageinnxx281866824428,tXfeVYKJq-bGPx1sjHOMHA,Village Inn,22601 State Rd 54,land o' lakes,FL,34639,28.1866210597,-82.4428262548,['restaurants'],2.5,61,1,0,1,0,0,0,0,0,0,0,1,0,0,1,1,0,0,0,1,0,0,0,1,0,1,1,1,0,1
chicagosstuf280370826571,KS7n4ctHUc9IhC7OGmeQog,Chicago's Stuffed Pizza,"4013 Tampa Rd, Ste 19 & 20",oldsmar,FL,34677,28.0370281081,-82.6571657675,"['restaurants', 'pizza']",2.0,17,0,0,1,1,0,0,1,0,0,0,1,0,1,1,0,0,0,0,1,0,0,0,1,0,0,1,1,0,1
franciscafex280408825264,P3qii5-Hch2tDd1e59znXQ,Franci's Cafe,"4901 W Linebaugh Ave, Ste 7",tampa,FL,33624,28.0408259,-82.5264812,"['food', 'restaurants', 'cuban']",4.5,34,1,0,1,0,0,0,0,0,1,0,1,0,1,0,0,0,0,0,1,0,0,0,1,0,1,1,1,0,1
ballyhoogril280782825698,encfXG_jrG1M6gX1IqrHrw,Ballyhoo Grill,7604 Ehrlich Rd,tampa,FL,33625,28.07824,-82.569894,"['restaurants', 'seafood']",3.5,262,0,0,1,1,0,0,1,0,1,0,1,0,1,1,0,1,1,0,1,0,0,0,1,0,1,1,1,0,1
mcdonaldsxxx283316826584,CxoRg-ZcXdpqXWmUJliYog,McDonald's,9441 St Rd 52,hudson,FL,34669,28.3316185901,-82.6584090292,"['restaurants', 'food']",2.5,28,1,1,1,1,1,0,0,0,0,0,1,0,1,0,0,0,0,0,1,0,0,0,1,0,1,1,1,0,1
aldixxxxxxxx279789821230,omaoTuxaVMPCxDkclaF2xA,ALDI,3021 James L Redman Pkwy,plant city,FL,33566,27.9789727252,-82.123096,['food'],4.0,5,1,1,0,0,0,0,0,0,0,0,1,0,1,1,0,0,0,0,0,0,0,0,0,0,0,0,0,0,1
wallstpizzax279475824551,YRWRq25_XCUeeqSlK1QZLA,Wall St Pizza,513 E Jackson St,tampa,FL,33602,27.9475693,-82.4551823,"['restaurants', 'pizza']",4.0,21,1,1,1,1,0,0,0,0,1,0,1,1,0,0,0,0,0,0,0,0,0,0,0,0,0,0,1,0,1
sucretablexx279444825116,jnge13lFtiLGXQEo5NwSYw,Sucre Table,4048 W Kennedy Blvd,tampa,FL,33609,27.9444151,-82.5116072,"['food', 'restaurants']",4.5,67,1,1,1,0,0,1,0,0,1,0,1,0,0,1,0,0,0,0,0,0,0,0,0,0,0,0,0,0,1
wingstopxxxx279817823001,6UuwB1bcTSkq2GX77M926g,Wingstop,11752 E Martin Luther King Jr Blvd,seffner,FL,33584,27.9817738,-82.3001788,"['restaurants', 'chicken wings']",3.0,5,1,0,1,0,0,0,0,0,0,0,1,0,0,1,0,0,0,0,0,0,0,0,0,0,0,0,0,0,0
winndixiexxx279373824809,Zq8OzV7VzEL-yd9feN_hfg,Winn Dixie,"2100 W Swann Ave, Ste B",tampa,FL,33606,27.9373475,-82.4809508,['food'],3.5,41,1,1,1,0,0,0,0,0,1,0,1,0,1,1,0,0,0,0,0,0,0,0,0,0,0,0,0,0,1
lemoutonnoir279512824461,Qg9Sx8RwqnpYKQeSjfPh2w,Le Mouton Noir Bakehouse,1112 Channelside Dr,tampa,FL,33602,27.95127,-82.446107,"['food', 'restaurants']",3.5,35,0,0,1,1,0,0,0,0,1,0,1,0,1,1,0,0,0,0,1,0,0,0,1,0,1,1,1,0,1
einsteinbros396119861584,EdysxosAepdogof_YDAgeQ,Einstein Bros Bagels,201 S State Road 135,greenwood,FL,46142,39.6119879,-86.1584049,"['restaurants', 'food']",2.5,10,0,0,0,0,0,0,0,0,0,0,1,0,0,1,0,0,0,0,0,0,0,0,0,0,0,0,0,0,1
sorelleresta283835825515,opVXuS10_bDDS32xYZCQQg,Sorelle Restaurant,15525 Shady Hills Rd,spring hill,FL,34610,28.3835233,-82.5515963,"['pizza', 'restaurants', 'chicken wings']",3.5,16,0,1,1,0,0,0,0,0,0,0,1,1,0,1,0,0,0,0,0,0,0,0,1,0,1,1,0,0,1
poképokébowl281551827638,71b0dSgq1XTYYYWs24Fhow,Poké Poké Bowl,"927 Dodecanese Blvd, Ste 2",tarpon springs,FL,34689,28.1551896,-82.7638098,"['asian fusion', 'vegetarian', 'restaurants', 'food', 'poke', 'hawaiian']",4.5,68,0,0,1,0,0,1,0,0,1,0,1,0,0,1,0,0,0,0,1,0,0,0,1,0,0,1,0,0,1
chilisxxxxxx280550824280,y3iKFTk_sgIXCT6fNcBn_Q,Chili's,2794 E Fowler Ave,tampa,FL,33612,28.0550259,-82.4280458,"['chicken wings', 'restaurants', 'tex-mex']",2.0,114,1,1,1,0,0,0,1,0,0,0,1,0,1,1,0,1,1,1,1,0,0,0,1,0,1,1,1,0,1
wendysxxxxxx280236825826,LRGbuufLJqxsDYsY7_Gx6A,Wendy's,8305 Sheldon Road,tampa,FL,33615,28.0236,-82.5826138,['restaurants'],2.5,13,1,1,1,0,0,0,0,0,0,0,1,0,1,1,0,0,0,0,1,0,0,0,1,0,1,1,1,0,1
martyscafexx279764823297,gNqYUPKGfZJycaZhCsi7xQ,Marty's Cafe,"9720 Princess Palm Ave, Ste 114",tampa,FL,33619,27.9764631494,-82.3297235912,"['greek', 'restaurants', 'pizza']",3.0,14,1,1,1,1,0,0,0,0,1,1,0,0,1,0,0,0,0,0,1,0,0,0,1,0,1,1,0,0,1
sliceofheave281790827431,k-Wb-2Y2RFGlaY00_Hm8Sw,Slice Of Heaven Pizza,1366 Alt 19,holiday,FL,34691,28.1790012359,-82.7431934248,"['restaurants', 'pizza', 'food']",3.5,66,1,1,1,1,0,0,0,0,1,0,1,0,1,1,0,0,0,0,1,0,0,0,1,0,1,1,1,0,1
elevenxxxxxx282254826902,5wnGMB8tXhNvGcbhPJeeVw,7-Eleven,4540 Rowan Rd,new port richey,FL,34653,28.2254315565,-82.6902160048,['food'],1.5,5,1,1,1,0,0,1,0,0,0,0,1,0,0,1,0,0,0,0,0,0,0,0,0,0,0,0,0,0,1
joelspizzapa278937822684,qC63cwAI-baLmbEdxbR3FA,Joel's Pizza Palace,1028 Bloomingdale Ave,valrico,FL,33596,27.8937222,-82.2684033,"['italian', 'pizza', 'restaurants']",4.0,44,0,1,1,1,0,0,0,0,1,0,1,0,1,1,0,0,0,0,1,0,0,0,1,0,1,1,0,0,1
leverockssea277446827455,EYCTO4GfMAGIJFtOjV-Uxw,Leverock's Seafood House of St Pete Beach,10 Corey Ave,st. pete beach,FL,33706,27.744602,-82.745516,"['seafood', 'restaurants']",4.0,6,0,0,0,0,0,0,0,0,0,0,1,0,0,0,0,0,0,0,1,0,0,0,0,0,1,1,0,0,1
gunslingersx278950827150,l9mfP_p3LetJNM9V0XKmkw,Gunslingers,13563 Icot Blvd,clearwater,FL,33760,27.8950021,-82.7150719,['restaurants'],2.5,6,0,0,0,1,0,0,0,0,0,0,1,0,0,1,0,0,0,0,1,0,0,0,0,0,1,0,0,0,1
luckyfoodsxx280257825170,p2V-Mz4tv-mZZxBt-YgWPw,Lucky 7 Foods,4355 W Waters Ave,tampa,FL,33614,28.0257989,-82.5170258,['food'],3.5,8,1,1,1,0,0,0,0,0,0,0,1,0,0,0,0,0,0,0,0,0,0,0,0,0,0,0,0,0,1
thebrunchery281279823691,txasGoZ1qB5toVaFiTbpmQ,The Brunchery,17507 Preserve Walk Ln,tampa,FL,33647,28.127905,-82.3691115,['restaurants'],4.0,88,1,1,1,0,0,0,0,0,0,0,1,0,0,0,1,1,0,0,1,0,0,1,0,0,1,1,1,0,1
phocuongxxxx278518827005,Ay2WvLj--MWd1Wa9Naa5Mw,Pho Cuong,8730 49th St,pinellas park,FL,33782,27.8518555,-82.7005748,"['vietnamese', 'restaurants']",2.5,5,0,0,1,0,0,0,0,0,1,0,1,0,0,0,0,0,0,0,1,0,0,0,1,0,1,1,1,0,1
yaseminmarke280321826470,kT93atyyr1EKbLr995IkLA,Yasemin Market,13958 W Hillsborough Ave,tampa,FL,33635,28.032113,-82.647088,['food'],5.0,9,1,0,0,0,0,0,0,0,0,0,1,0,0,1,0,0,0,0,0,0,0,0,0,0,0,0,0,0,1
brickcityeat281893825409,YlEBQLfRHocJDn4gRlgczw,Brick City Eatery,"16540 Pointe Village Dr, Ste 108",lutz,FL,33558,28.189368941,-82.540934119,"['restaurants', 'pizza', 'chicken wings', 'food']",4.0,114,1,1,1,0,0,1,1,0,1,1,0,0,0,1,0,0,1,0,1,0,0,0,1,0,1,1,1,0,1
handelshomem396023861598,xL8ZyE0hDgumUdMt7QESXw,Handel's Homemade Ice Cream,902 N State Rd 135,greenwood,FL,46142,39.6023215,-86.1598086,['food'],4.5,39,1,1,1,0,0,1,0,0,0,0,1,1,0,1,0,0,0,0,0,0,0,0,0,0,0,0,0,0,1
mricecreamxx278008828001,uJumjiVcHFLx6PV9rP-P1Q,Mr Ice Cream,"14995 Gulf Blvd, Ste B2",madeira beach,FL,33708,27.80085,-82.80018,['food'],4.5,88,0,0,1,0,0,1,0,0,0,0,1,0,1,0,0,0,0,0,0,0,0,0,0,0,0,0,1,0,1
romanospizza279977824845,JjcAJybTnaoZ4vdGzf538Q,Romanos Pizza Express,5602 N Armenia Ave,tampa,FL,33603,27.997710165,-82.4845614652,"['chicken wings', 'pizza', 'restaurants']",3.0,13,0,1,1,0,0,0,0,0,0,0,1,0,1,1,0,0,0,0,1,0,0,0,1,0,1,1,0,0,1
dragoncityxx278931822730,UU48d45ZXJV1Sb8_Pmpvjg,Dragon City,801 E Bloomingdale Ave,brandon,FL,33511,27.8931397,-82.273059,"['restaurants', 'chinese']",2.5,25,0,1,1,0,0,0,0,0,0,0,1,0,0,0,0,0,0,0,1,0,0,0,1,0,0,1,0,0,1
sultanmarket280321824183,CtNglIJY2yp05rZpG9F3tA,Sultan Market,3613 E Busch Blvd,tampa,FL,33612,28.0321886941,-82.4183867103,"['middle eastern', 'food', 'halal', 'restaurants']",5.0,10,1,0,1,0,0,1,0,0,0,1,0,0,1,1,0,0,0,0,0,0,0,0,1,0,0,0,1,0,1
brandonbagel279382822973,G6kRQylkjNNE-yUXM2muBg,Brandon Bagels,942 W Brandon Blvd,brandon,FL,33511,27.9382531,-82.2973831,"['restaurants', 'food']",4.5,119,1,1,1,0,0,0,0,0,1,0,1,0,1,0,0,0,0,0,0,0,0,0,0,0,0,0,0,0,1
gourmetpizza279379824846,3OGzmGqWwsyGLkhnxrA9Pw,Gourmet Pizza Company,"610 S Armenia Ave, Ste 101",tampa,FL,33609,27.937948,-82.484684,"['pizza', 'restaurants', 'gluten-free', 'vegan']",4.0,185,1,1,1,0,0,1,0,0,1,1,0,0,1,1,0,1,1,0,1,0,0,0,1,0,1,1,1,0,1
moleyabuelax279536824604,CGVpuQ3FpPWyYFQJQlsjLQ,Mole y Abuela,1202 N Franklin St,tampa,FL,33602,27.9536077,-82.4604458,"['restaurants', 'spanish', 'mediterranean']",4.0,201,0,1,1,1,0,0,1,0,0,0,1,0,0,1,0,0,1,0,1,0,0,1,1,0,1,0,1,0,1
dairyqueengr364880868650,28XH9UYU-uGajC0Nz5Bwog,Dairy Queen Grill & Chill,2540 Memorial Blvd,springfield,FL,37172,36.4880525767,-86.8650939269,"['food', 'restaurants']",2.5,7,1,1,1,1,1,0,0,0,0,0,1,0,0,0,0,0,0,0,0,0,0,0,0,0,0,0,0,0,1
skylinechili280338827391,eS4billU3Yd9hoVUFfZFbA,Skyline Chili,28798 US Hwy 19 N,clearwater,FL,33761,28.0338251,-82.7391913,['restaurants'],4.0,81,0,0,1,1,0,0,0,0,1,0,1,0,1,1,0,1,1,0,1,0,0,0,1,0,1,1,1,0,1
hackettscaus280489827799,TMT9U2da4ewGbk38X54KJA,Hackett's Causeway Cafe and Creamery,901 Curlew Rd,dunedin,FL,34698,28.0489350817,-82.7799664065,"['restaurants', 'pizza', 'food']",4.5,102,0,0,1,1,0,0,0,0,1,0,1,1,1,1,0,1,1,1,1,0,0,0,1,0,1,1,1,0,1
walgreensxxx282304822126,7MoPLRDfUmVB6hoFhpdu-Q,Walgreens,36515 State Road 54,zephyrhills,FL,33541,28.2304923,-82.2126779,['food'],2.0,5,1,0,1,0,1,0,0,0,0,0,1,0,0,1,0,0,0,0,0,0,0,0,0,0,0,0,0,0,1
samisbakeryx280320824324,xqfJZ57uQ8NAgLazfMVV6A,Sami's Bakery,2399 E Busch Blvd,tampa,FL,33612,28.03203,-82.432463,['food'],4.0,50,1,0,1,0,0,0,0,0,1,0,1,0,1,1,0,0,0,0,0,0,0,0,0,0,0,0,0,0,1
logansroadho362958866993,zOXvoQVFElBEhz__YT6VNw,Logan's Roadhouse,1715 Gallatin Pike N,madison,FL,37115,36.295855,-86.699384,['restaurants'],2.0,62,0,1,1,1,0,0,0,0,1,0,1,0,1,0,0,0,0,0,1,0,0,0,1,0,1,1,0,0,1
thegreatamer279810825351,T2D57uRu-w242lYUlkjTAw,The Great American Bagel,Tampa International Airport,tampa,FL,33607,27.9810958987,-82.5351161767,['food'],3.0,12,0,0,1,0,0,0,0,0,0,0,1,0,0,1,0,0,0,0,0,0,0,0,0,0,0,0,0,0,1
germanbistro278876824936,qpfMY-wl7sm1SChElC6vtQ,German Bistro,5232 S MacDill Ave,tampa,FL,33611,27.88766,-82.493632,"['restaurants', 'german']",4.0,25,0,0,1,1,0,0,0,0,1,0,1,0,0,1,0,0,1,0,1,0,0,0,1,0,1,1,0,0,1
happyendingf279216821169,byb88TuDmgiobijc0pAuog,Happy Ending Food Truck,,plant city,FL,33567,27.9216909,-82.116955,"['food', 'chicken wings', 'hawaiian', 'restaurants']",5.0,10,1,1,1,1,0,0,0,0,1,0,1,0,0,1,0,0,0,0,0,0,0,0,0,0,0,0,0,0,0
ithaisushire278730827875,k3EQAQGptzHzl6oEoas61w,Ithai & Sushi Restaurant,11002 Seminole Blvd,largo,FL,33778,27.8730288,-82.7875025,"['restaurants', 'thai']",4.0,63,1,1,1,0,0,0,0,0,0,0,1,0,1,1,0,0,0,0,1,0,0,0,1,0,0,1,0,0,1
loscomparres279951824841,xkTjLbBC7uB-rAIDqAm-sw,Los Comparres,5305 N Armenia Ave,tampa,FL,33603,27.995155,-82.48414,"['restaurants', 'mexican', 'food', 'seafood']",4.5,339,1,1,1,1,0,1,0,0,0,0,1,0,1,1,0,1,1,0,1,0,0,0,1,0,1,1,0,0,1
gasparillapi278942822681,oVlS3TqJLq6ogSo9tI_U0Q,Gasparilla Pizzeria & Growlers,1028 E Bloomingdale Ave,valrico,FL,33596,27.894254,-82.268108,"['pizza', 'chicken wings', 'restaurants']",4.5,57,1,1,1,1,0,0,0,0,0,0,1,0,0,0,0,0,0,0,0,0,0,0,0,0,0,0,0,0,0
keystonefarm281408826384,CJ8WEpt2fHLJ_MfpeYEeTg,Keystone Farmers Market,12615 Tarpon Springs Rd,odessa,FL,33556,28.1408006,-82.6384266,['food'],4.5,20,1,0,1,0,0,1,0,0,0,0,1,0,1,1,0,0,0,0,0,0,0,0,0,0,0,0,0,0,1
rickenbacker278534824822,n6zEr09OC7WigrxfQ4rjQQ,Rickenbacker's,7637 Bayshore Blvd,tampa,FL,33621,27.8534777946,-82.4822765156,['restaurants'],4.0,5,1,0,0,0,0,0,0,0,0,0,1,0,0,1,0,0,0,0,0,0,0,0,0,0,0,0,0,0,0
bjswholesale399090753304,nMxfEiAANa_FsrCZZVHoEg,BJ's Wholesale Club,1260 E. Woodland Ave.,springfield,FL,19064,39.9090639,-75.330468,['food'],2.5,33,1,1,0,0,0,0,0,0,0,0,1,0,1,1,0,0,0,0,0,0,0,0,0,0,0,0,0,0,1
arbysxxxxxxx278842827876,q61niB21oQPmZlO3wsSO7Q,Arby's,12266 Seminole Blvd,largo,FL,33778,27.8842992,-82.787684,['restaurants'],2.0,14,1,1,1,0,1,0,0,0,0,0,1,0,1,0,0,0,0,0,1,0,0,0,1,0,1,1,0,0,1
mainstreetba282499827234,prEEus2L3Xo01nOvs2MaKg,Main Street Bakery NPR,"5500 Main St, Ste 115",new port richey,FL,34652,28.2499926333,-82.7234616503,"['restaurants', 'food']",4.5,5,1,0,1,1,0,0,0,0,0,0,1,0,0,1,0,0,0,0,0,0,0,0,0,0,0,0,0,0,0
twisteetreat279986825828,R0HjMCL_m5wjBeUpOXqzdA,Twistee Treat - Sheldon,5531 Sheldon Rd,tampa,FL,33615,27.998621,-82.5828717,"['food', 'restaurants']",4.0,58,1,0,1,1,0,1,0,0,0,0,1,1,1,1,0,0,0,0,0,0,0,0,1,0,0,1,0,0,1
timpanohydep279370824760,mLNSOU8Ki0Fm09xd6ZKkcA,Timpano Hyde Park,1610 W Swann Ave,tampa,FL,33606,27.9370426822,-82.4760082753,"['restaurants', 'italian']",3.5,380,1,0,1,1,0,1,1,0,1,0,1,0,1,1,0,1,1,0,0,0,0,1,1,1,1,0,1,0,1
wangcaixxxxx396126861575,yPzni14snM06Kk5xLy6e6w,Wang Cai,209 S State Rd 135,greenwood,FL,46142,39.612678700000004,-86.1575896,"['food', 'restaurants', 'chinese']",3.5,31,1,1,1,0,0,0,0,0,0,0,1,0,0,1,0,0,0,0,0,0,0,0,0,0,0,0,0,0,1
coneyislandx282353821826,MqM7ACk2dMtx-F_Rlc7Suw,Coney Island,5327 Gall Blvd,zephyrhills,FL,33542,28.2353642102,-82.1826653295,['restaurants'],3.5,63,0,0,1,1,0,0,0,0,0,1,0,0,1,1,0,1,0,0,1,0,0,0,1,0,1,1,0,0,1
turmericindi299072900618,X6GzniQjbm3YFWWwzDrBkg,Turmeric Indian Cuisine,1025 Westbank Expy,gretna,FL,70053,29.9072703957,-90.0618257695,"['indian', 'restaurants']",4.5,120,1,1,1,0,0,1,0,0,1,0,1,0,0,1,0,1,1,0,1,0,0,1,1,0,1,0,1,0,1
largogolfcou278868828209,z3Zv5di2BEok__snpopeBA,Largo Golf Course,12500 Vonn Rd,largo,FL,33774,27.8868646407,-82.8209533229,"['fish & chips', 'restaurants']",4.0,5,1,0,0,0,0,0,0,0,0,0,1,0,1,0,0,0,0,0,0,0,0,0,0,0,0,1,0,0,0
kindgrindsxx279565824265,V3BE5TB1LOWbne3r-fWLsg,Kind Grinds,,tampa,FL,33605,27.9565429,-82.4265217,"['restaurants', 'food', 'japanese', 'korean']",4.5,6,0,0,0,0,0,0,0,0,1,0,1,0,0,0,0,0,0,0,0,0,0,0,0,0,1,0,0,0,1
pupuseriacaf279809824855,07i5EdI8v2FBhVV-rya8Wg,Pupuseria & Cafeteria Centroamericana,2504 W Martin Luther King Blvd,tampa,FL,33607,27.9809251,-82.4855927,"['latin american', 'restaurants', 'salvadoran']",4.5,137,1,1,1,0,0,0,0,0,0,0,1,0,0,1,1,1,1,0,1,0,0,0,1,0,1,1,0,0,1
grainandberr277996823353,yJqN-U9dUylYEwTr8SBP1Q,Grain and Berry,"12953 US-301, Unit 103",riverview,FL,33578,27.799635,-82.335347,"['vegan', 'restaurants', 'food']",3.5,43,1,1,1,0,0,0,0,0,0,0,1,0,0,0,0,0,0,0,0,0,0,0,0,0,0,0,0,0,1
bjswholesale280182827403,0o-NZqU-hOadBa_pMkWzCA,BJ's Wholesale Club,26996 Highway 19 N,clearwater,FL,33761,28.018297,-82.740301,['food'],2.5,25,1,1,0,0,0,0,0,0,0,0,1,0,0,0,0,0,0,0,0,0,0,0,0,0,0,0,0,0,0
earlofsandwi279656825207,knA3b_WnHUJAyrIzzL9Lrg,Earl of Sandwich,"2223 Fc-206 International Mall Food Court N Westshore Blvd, International Mall Food Court",tampa,FL,33607,27.9656004,-82.5207316,"['restaurants', 'food']",3.5,100,1,1,1,1,0,0,0,0,1,0,1,0,1,1,0,1,1,0,1,0,0,0,1,0,1,1,1,0,1
centrocantin279605824415,Q5odYgHa-ApKOPVrEFmRQA,Centro Cantina,1600 E 8th Ave,tampa,FL,33605,27.960583,-82.441572,"['tex-mex', 'restaurants', 'karaoke']",3.0,107,1,0,0,1,0,1,1,0,0,0,1,1,1,1,0,0,0,0,1,0,0,0,1,1,1,0,1,0,1
insteadofflo278568826487,Qm9C0MiecSDJfkjkbkyoaA,Instead of Flowers,1100 94th Ave N,st. petersburg,FL,33702,27.8568498,-82.6487873,"['vegetarian', 'restaurants', 'gluten-free']",5.0,6,1,1,0,0,0,0,0,0,0,0,1,0,0,1,0,0,0,0,0,0,0,0,0,0,0,0,0,0,0
gatorscafesa277825827816,nvb8SFi1-LzaQHEhUnw_7g,Gators Cafe & Saloon,12754 Kingfish Dr,treasure island,FL,33706,27.782549500000002,-82.7816064,"['restaurants', 'food']",3.0,301,0,0,1,1,0,0,0,0,1,0,1,0,1,1,0,1,0,0,1,0,0,0,1,1,1,1,1,0,1
unclemaddios281279825044,eWGdkt9fdwg7aKboaZIVQQ,Uncle Maddios Pizza,3949 Van Dyke Rd,lutz,FL,33558,28.1279022,-82.504413,"['restaurants', 'pizza', 'gluten-free']",4.0,103,0,0,1,1,0,1,1,0,1,1,0,0,0,1,0,1,1,0,1,0,0,0,1,0,1,1,1,0,1
beaniesbarsp277043824425,4JQ0hePJAlBepDzb20_32g,Beanie's Bar & Sports Grill,2002 S US Hwy 41,ruskin,FL,33570,27.704314281,-82.4425658705,"['restaurants', 'chicken wings']",3.5,80,1,0,1,1,0,0,1,0,1,0,1,0,1,1,0,1,1,0,1,0,0,0,1,0,1,1,0,0,1
checkersxxxx280257824598,7BdU02Hf1QQx5YE3WYGcxQ,Checkers,107 W Waters Ave,tampa,FL,33604,28.0257155,-82.4598851,['restaurants'],1.5,13,1,1,1,1,1,0,0,0,0,0,1,0,0,1,0,0,0,0,1,0,0,0,1,0,1,1,0,0,1
chucksbbqxxx400959748593,PEs5kilsGdB31jSt84ItuA,Chuck's BBQ,2 Pond St,bristol,FL,19007,40.0959133,-74.8593254,"['restaurants', 'food']",3.0,36,1,1,1,1,0,1,0,0,1,1,0,1,1,1,0,0,0,0,0,0,0,0,1,0,0,0,0,0,1
capriottissa281916826132,9UVFBNXegnoW9oIfj5p7Kg,Capriotti's Sandwich Shop,12267 St Rd 54,odessa,FL,33556,28.19161,-82.6132195,['restaurants'],4.0,28,1,1,1,0,0,0,0,0,1,0,1,0,0,0,0,0,0,0,0,0,0,0,1,0,1,0,0,0,0
avaxxxxxxxxx279362824828,cg4JFJcCxRTTMmcg9O9KtA,Ava,718 S Howard Ave,tampa,FL,33606,27.936236,-82.482862,"['restaurants', 'italian', 'food', 'pizza']",3.5,544,1,1,1,1,0,1,1,0,1,0,1,1,1,1,0,0,1,0,1,0,0,1,1,0,1,1,1,0,1
bayscapeathe281473822964,FOtDhobe5Os8A7zSI_MvrA,Bayscape at Heritage Isles,10630 Plantation Bay Dr,tampa,FL,33647,28.1473720692,-82.2964053601,['restaurants'],4.0,20,1,0,1,1,0,1,1,0,1,0,1,0,1,1,0,0,0,0,0,0,0,0,1,0,0,0,1,0,1
kfcxxxxxxxxx280494826990,rZZ6gtsqBVkpSLoZ9EZ_1A,KFC,3144 Tampa Rd,oldsmar,FL,34677,28.0494352,-82.69904,"['chicken wings', 'restaurants']",1.5,28,0,1,1,0,1,0,0,0,0,0,1,0,0,1,0,0,0,0,1,0,0,0,1,0,0,1,0,0,1
pizzeriamaki397797755983,Vo4NZBtF3mr6EJitNnq-Wg,Pizzeria Maki,"4007 Kennett Pike, Ste A",greenville,FL,19807,39.7797569,-75.5983935,"['restaurants', 'pizza']",5.0,13,1,1,1,0,0,0,0,0,0,0,1,0,0,1,0,0,0,0,0,0,0,0,0,0,0,0,0,0,0
westvillebre398704751265,0aPFLEnfRDq8DfhOkbZ9RQ,Westville Brewery,"201 Broadway, Ste B",westville,FL,08093,39.8704638,-75.1265807,['food'],4.0,8,1,0,1,0,0,1,0,0,0,0,1,0,0,1,0,0,0,0,0,0,0,0,0,0,0,0,0,0,1
miseenplaceb279426824521,ntewVyhJ6C8H0U_KkduioQ,Mise En Place Bistro,401 Channelside Dr,tampa,FL,33602,27.9426726234,-82.4521769956,"['pizza', 'food', 'restaurants']",3.5,8,1,0,1,0,0,0,0,0,0,0,1,0,0,1,0,0,0,0,0,0,0,0,0,0,0,0,0,0,0
mcdonaldsxxx279237823233,9DhjKaR2f9wKATnUvxBAgg,McDonald's,11212 Causway Blvd,brandon,FL,33511,27.923798,-82.323313,"['food', 'restaurants']",1.5,29,1,1,1,1,1,0,0,0,0,0,1,0,1,0,1,0,0,0,1,0,0,0,1,0,1,1,1,0,1
booksamillio279323823268,x975oi4VWOxHJWE6dwSPzw,Books-A-Million,839 Brandon Town Center Mall,brandon,FL,33511,27.9323708047,-82.326853969,['food'],3.5,21,1,0,0,0,0,0,0,0,0,0,1,0,1,1,0,0,0,0,0,0,0,0,0,0,0,0,0,0,1
chickfilaxxx277977823339,EQoeJ4o6re7EC4_EONXPlg,Chick-fil-A,12810 Summerfield Crossing Blvd,riverview,FL,33579,27.7977129,-82.3339698,['restaurants'],1.5,87,1,1,1,0,1,0,0,0,1,0,1,0,0,1,0,0,0,0,0,0,0,0,1,0,0,0,0,0,0
driftwoodcaf277738826225,wunF8CkjYkARgCbGwYRm3A,Driftwood Cafe,800 2nd Ave NE,st. petersburg,FL,33701,27.7738335414,-82.6225407873,"['restaurants', 'pizza']",4.0,18,1,0,0,1,0,0,0,0,0,0,1,0,0,1,0,0,0,0,0,0,0,0,0,0,0,0,1,0,0
platolatinox280889824588,tl6CbSRA1txPHavvrQZfDA,Plato Latino,202 E Bearss Ave,tampa,FL,33613,28.0889550568,-82.4588084221,"['restaurants', 'latin american']",4.0,55,1,0,1,0,0,0,0,0,1,0,1,0,0,1,0,1,0,0,1,0,0,0,1,0,1,1,1,0,1
muckyduckxxx395746861589,MdIE0W_jztQNFtDog0dObg,Mucky Duck,2800 S State Rd 135,greenwood,FL,46143,39.5746233,-86.1589527,['restaurants'],2.0,17,0,0,1,1,0,0,0,0,0,0,1,0,0,1,0,0,0,0,1,0,0,0,1,0,1,1,0,0,1
honeysxxxxxx280494825042,u8CwR6jZgKqBPCjBViEWcQ,Honey's,11115 N Dale Mabry Hwy,tampa,FL,33618,28.0494589,-82.5042328,['restaurants'],3.5,6,0,0,1,1,0,0,0,0,0,0,1,0,0,0,0,0,0,0,1,0,0,0,1,0,1,1,0,0,1
luigisitalia278933824995,_O16xyQwp0YSTG2RgweRYA,Luigi's Italian Restaurant,"3224 W Gandy Blvd, Ste 3",tampa,FL,33611,27.893361,-82.49954,"['italian', 'pizza', 'restaurants']",3.5,37,0,1,1,1,0,0,1,0,1,0,1,0,1,1,0,0,0,0,1,0,0,0,1,0,1,1,0,0,1
nidiaslating279942822202,_Xo-JzgxbMaDi5cvlfHpwg,Nidia's Latin Grill,14164 574th Hwy,dover,FL,33527,27.9942212,-82.220255,['restaurants'],4.5,19,1,0,1,0,0,1,0,0,1,1,0,0,0,1,0,0,0,0,1,0,0,0,1,0,0,1,0,0,1
suzisrestaur279161827723,6O6W8hHIMs-xJWT6yfh5qw,Suzi's Restaurant,1555 E Bay Dr,largo,FL,33771,27.916168,-82.772327,"['restaurants', 'greek']",4.5,35,1,0,1,0,0,1,0,0,1,0,1,0,0,0,0,0,0,0,1,0,0,0,1,0,0,0,1,0,1
hippiehixxxx279540827959,-yi4ks8BKZ-_xcJYT9WLjQ,Hippie Hi,1106 S Myrtle Ave,clearwater,FL,33603,27.9540206,-82.7959877,['food'],4.0,11,0,0,1,0,0,1,0,0,0,0,1,0,1,1,0,0,0,0,0,0,0,0,1,0,0,0,1,0,1
perkscoffeeh281918826369,O_V9eD3bne7DrZtNHT4Tfg,Perks Coffeehouse,"10720 State Rd 54, Ste 105",trinity,FL,34655,28.1918774974,-82.6369483396,['food'],4.0,8,0,0,1,1,0,1,0,0,0,0,1,0,1,0,0,0,0,0,0,0,0,0,0,0,0,0,1,0,1
mcdonaldsxxx402174747435,8ZHMr31oBElXmaqSmZJs2Q,McDonald's,501 Chambers St,trenton,FL,08609,40.2174128225,-74.7435072848,"['food', 'restaurants']",1.5,9,1,1,1,0,1,0,0,0,0,0,1,0,0,1,0,0,0,0,0,0,0,0,0,0,0,0,1,0,0
thenyslicexx396336861168,FI8fpqACdKnIkO-ur0FVfg,The NY Slice,1201 Greenwood Park E Dr,greenwood,FL,46142,39.6336475,-86.1168714,"['pizza', 'restaurants', 'food']",3.5,16,1,1,1,0,0,0,0,0,0,0,1,0,0,1,0,0,0,0,0,0,0,0,0,0,0,0,0,0,0
hotwillysxxx279591824405,ZC0_EKG2MSu0qaQj4TY6sw,Hot Willy's,1604 N 17th St,tampa,FL,33605,27.959124,-82.4405692,['restaurants'],4.5,10,0,0,1,1,0,0,0,0,0,0,1,0,0,1,0,0,0,0,1,0,0,0,0,0,1,1,0,0,1
chopstixxxxx280688824437,zPmSsAdvoBbo94msaYCLYg,Chopstix,1441 E Fletcher Ave,tampa,FL,33612,28.0688469,-82.4437504,"['restaurants', 'chinese', 'seafood']",3.0,32,0,1,1,0,0,0,0,0,0,0,1,0,1,0,0,1,1,0,1,0,0,0,1,0,1,1,0,0,1
tacobusxxxxx280850825014,FxBwl9Grthz-75q8xemfxQ,Taco Bus,3611 W Bearss Ave,tampa,FL,33618,28.0850379,-82.5014795,"['mexican', 'restaurants']",1.5,5,1,1,1,0,0,0,0,0,0,0,1,0,0,1,0,0,0,0,0,0,0,0,0,0,0,0,0,0,0
akirahibachi278521822678,zSEFzAbxnO44w8ACQ_XkAA,Akira Hibachi & Sushi Bar,13420 Boyette Rd,riverview,FL,33569,27.8521439085,-82.2678940657,"['asian fusion', 'restaurants', 'gluten-free', 'japanese', 'seafood']",4.0,74,1,1,1,0,0,0,0,0,0,1,0,0,0,0,0,0,1,0,1,0,0,0,1,0,1,1,1,0,1
omahasteaksx280668825025,0Ga7YzSAIVZ8jrWwGE9m6Q,Omaha Steaks,"13129-F N. Dale Mabry Hwy., #410",tampa,FL,33618,28.0668773659,-82.5025714394,['food'],3.0,10,1,0,0,0,0,0,0,0,0,0,1,0,0,1,0,0,0,0,0,0,0,0,1,0,0,0,0,0,1
navieracoffe279604824363,6HRbMeGq5Y4hqRkgXnG6Ig,Naviera Coffee Mills,2012 E 7th Ave,tampa,FL,33605,27.960479499999998,-82.436308,"['restaurants', 'food']",4.0,24,0,0,1,0,0,0,0,0,0,0,1,0,1,1,0,0,0,0,0,0,0,0,0,0,0,0,0,0,1
lagiraldilla279963824721,Dwwt8KwB0iyf86aE4p4vSQ,La Giraldilla,"1003 W Hillsborough Ave, Ste 4",tampa,FL,33603,27.9963789,-82.4721976,"['restaurants', 'cuban']",3.0,27,1,0,1,1,0,0,0,0,0,0,1,1,0,1,0,0,0,0,1,0,0,0,1,0,0,1,0,0,1
dickeysbarbe299166900501,ATYVsHtyiQnknwFD1ZX4bQ,Dickey's Barbecue Pit,91 Westbank Expressway,gretna,FL,70053,29.9166412,-90.0501954,"['restaurants', 'chicken wings']",3.0,60,1,1,1,0,1,1,0,0,1,1,0,0,1,1,0,1,1,0,1,0,0,0,1,0,1,1,1,0,1
starlitesapp277507827428,yWx7-4lHvyT0TpIO7pLA3Q,StarLite Sapphire,3400 Pasadena Ave S,st. petersburg,FL,33707,27.7507274,-82.7428137,['restaurants'],3.5,45,1,0,0,1,0,0,0,0,0,0,1,0,1,1,0,0,1,0,0,1,0,1,1,0,1,1,0,0,1
taqueriaelso277121822979,LH7kN8nAyF2JE5higfK4ZA,Taqueria El Sol,702 Railroad St N,wimauma,FL,33598,27.7121935,-82.2979132,"['mexican', 'restaurants']",4.5,69,1,0,1,1,0,1,0,0,1,0,1,0,1,1,0,1,1,0,1,0,0,0,1,0,1,1,0,0,1
chinakingxxx282373826686,l4N93cZPMrtCSIBYT5Vk5A,China King,5332 Little Rd,new port richey,FL,34655,28.237338,-82.6686826,"['restaurants', 'chinese']",3.0,20,1,0,1,0,0,0,0,0,0,0,1,0,0,1,0,0,0,0,1,0,0,0,1,0,0,1,0,0,1
sweetislandv279163827918,xCveOAv9FhUGAGr-qNhKuQ,Sweet Island Vibes,351 W Bay Dr,largo,FL,33770,27.9163243,-82.7918821,"['seafood', 'caribbean', 'restaurants']",3.0,12,0,0,1,0,0,0,0,0,0,0,1,0,0,0,0,0,0,0,1,0,0,0,1,0,1,1,0,0,1
monstahlobst279420824791,AIz4DpQVVpeC9tiNnGLy_g,Monstah Lobstah,1901 W Platt,tampa,FL,33606,27.942091,-82.479153,"['seafood', 'restaurants']",4.0,34,0,0,1,1,0,0,0,0,1,0,1,0,0,1,0,0,0,0,1,0,0,0,1,0,1,1,1,0,1
publixsuperm282826826982,hR5iDoUnO3N9GYcRj7T73A,Publix Super Markets,7037 Ridge Rd,port richey,FL,34668,28.282627,-82.6982059,['food'],3.5,6,1,1,0,0,0,0,0,0,1,0,1,0,1,1,0,0,0,0,0,0,0,0,0,0,0,0,0,0,1
xtremetacosx280254824573,xGUAa3xa8KsmbolC3XboQg,Xtreme Tacos,310 East Waters Ave,tampa,FL,33604,28.0254766,-82.457399,"['mexican', 'food', 'restaurants', 'tex-mex']",4.5,193,0,1,1,1,0,1,0,0,1,1,0,0,1,1,0,1,1,0,1,0,0,0,1,0,0,1,0,0,1
walmartxxxxx402202751379,3dgXlhN2ChBW2Y75OWQ4FQ,Walmart,299 Valley Gate Dr,warrington,FL,18976,40.2202079,-75.1379376,['food'],2.0,37,1,1,0,0,0,0,0,0,0,0,1,0,0,1,0,0,0,0,0,0,0,0,0,0,0,0,0,0,1
tampapizzaco280429825923,ugSj0rWlWQ57-FuKuieGXA,Tampa Pizza Co - Westchase,9556 W Linebaugh Ave,tampa,FL,33626,28.042926,-82.59231,"['italian', 'pizza', 'restaurants']",4.0,81,1,1,1,1,0,1,1,0,1,0,1,1,1,1,0,1,1,0,1,0,0,0,1,0,1,1,1,0,1
kaisensushix280830825043,e9J0IWHyYGU-AcCqTQ7lSA,Kaisen Sushi,14841 N Dale Mabry Hwy,tampa,FL,33618,28.083075,-82.504375,"['restaurants', 'japanese']",4.0,69,0,0,1,0,0,0,0,0,0,0,1,0,1,1,0,0,0,0,1,0,0,0,1,0,1,1,0,0,1
hilltopcafex282924826750,9wa2FJBzEk8Gv0ahK2o_hA,Hilltop Cafe,9322 Little Rd,new port richey,FL,34654,28.292461,-82.675004,['restaurants'],4.0,20,1,0,1,0,0,0,0,0,0,0,1,0,0,1,0,0,0,0,1,0,0,0,1,0,0,1,0,0,1
mamaskitchen278848825060,BVndHaLihEYbr76Z0CMEGw,Mamas Kitchen,5524 S Dale Mabry Hwy,tampa,FL,33611,27.884852,-82.5060044,['restaurants'],4.5,162,1,1,1,1,0,1,0,0,1,0,1,0,1,1,1,1,0,0,1,0,0,0,1,0,1,1,1,0,1
rogerschicag283644826934,uNgurpUi-9BRM6VLEnuNKA,Roger's Chicago Beef & Pizza,,hudson,FL,34667,28.3644485,-82.6934343,"['restaurants', 'pizza']",3.0,18,1,1,1,1,0,1,0,0,0,0,1,0,1,1,0,0,0,0,0,0,0,0,0,0,0,0,0,0,1
tijuanaflats280433825924,LkskzKzo_S8YmG1dGn4hag,Tijuana Flats,9520 W. Linebaugh Ave.,tampa,FL,33626,28.043321,-82.592416,"['tex-mex', 'mexican', 'restaurants']",4.0,104,1,1,1,1,0,0,1,0,1,1,0,0,1,0,0,1,1,0,1,0,0,1,1,0,1,1,1,0,1
embassysuite279423824547,B2wSy1zQCdZgDXOkhAKGDQ,Embassy Suites by Hilton Tampa Downtown Convention Center,513 S Florida Ave,tampa,FL,33602,27.9423153,-82.4547605,['restaurants'],2.5,209,1,0,0,1,0,0,0,0,1,0,1,0,0,1,0,0,0,0,1,0,0,0,1,0,1,1,1,0,1
pizzahutxxxx282175826953,SFafZpcCcjO28VzimGmKrQ,Pizza Hut,7213 County Road 54,new port richey,FL,34653,28.217507,-82.695356,"['restaurants', 'pizza', 'italian', 'chicken wings']",2.0,26,1,1,1,0,0,0,0,0,1,0,1,0,1,0,0,0,0,0,1,0,0,0,1,0,1,1,0,0,1
jetspizzaxxx396297861591,seouwqRlM9YNNAkZS09FuQ,Jet's Pizza,954 N State Rd 135,greenwood,FL,46142,39.6297342096,-86.159157,"['pizza', 'restaurants', 'food', 'italian']",3.0,37,1,1,1,1,0,1,0,0,1,1,0,0,1,1,0,0,0,0,1,0,0,0,1,0,0,1,0,0,1
firehousesub279367823150,EFPLTyrqx_x_6GVaDU5Mtw,Firehouse Subs,1921 W Brandon Blvd,brandon,FL,33511,27.9367861,-82.3150592,['restaurants'],2.5,35,1,1,1,0,0,0,0,0,1,0,1,0,0,0,0,0,0,0,1,0,0,0,1,0,1,1,0,0,1
frontierstea280114823605,qf4LecJDQWIt0gt6VJWFPw,Frontier Steakhouse,8602 E Sligh Ave,tampa,FL,33610,28.0114286,-82.3605699,['restaurants'],3.5,95,1,0,1,0,0,0,1,0,1,0,1,0,1,1,0,0,1,0,1,0,0,0,1,0,1,1,0,0,1
letthemeatca279083825272,EmbZ4QwVt_zgfqMOCATsyA,Let Them Eat Cake,"3805 S West Shore Blvd, Ste B",tampa,FL,33611,27.9083039,-82.5272462,"['food', 'restaurants']",3.5,37,1,1,0,0,0,1,0,0,0,0,1,0,1,1,0,0,0,0,0,0,0,0,0,0,0,0,0,0,1
phoanhoarest280250824881,Yh_KhyVD6ZBwsIQQ1wSUpw,Pho An Hoa Restaurant,2730 W Waters Ave,tampa,FL,33614,28.0250188,-82.4881568,"['vietnamese', 'restaurants']",4.0,160,1,0,1,0,0,0,0,0,0,0,1,0,0,1,0,1,1,0,1,0,0,0,1,0,1,1,0,0,1
circlekxxxxx280346826489,mNxll58XfvgtIFlzIZ5PIQ,Circle K,5025 Tampa Rd,oldsmar,FL,34677,28.0346134,-82.6489772,['food'],4.0,5,1,1,0,0,0,0,0,0,0,0,1,0,0,1,0,0,0,0,0,0,0,0,0,0,0,0,0,0,0
beachislandb280397827842,_bZjpxLwuCPH7I7udj-Qaw,Beach Island Brewery,"2058 Bayshore Blvd, Ste 5",dunedin,FL,34698,28.039776,-82.78422,['food'],4.5,10,1,0,0,0,0,0,0,0,0,0,1,1,0,1,0,0,0,0,0,0,0,0,1,0,0,0,0,0,0
kawajapanese399439753488,V7TaLZ5EB94hqRIZ1_xjGQ,Kawa Japanese Cuisine,821 W Sproul Rd,springfield,FL,19064,39.9439214896,-75.3488279928,"['restaurants', 'ramen', 'japanese']",4.5,145,1,1,1,0,0,1,0,0,1,0,1,0,1,0,0,1,1,0,1,0,0,0,1,0,1,1,1,0,1
taqueriachaz279968827753,aqWE8jXPqIQ5Tt80gNmuSA,Taqueria Chazumba,2095 N Highland Ave,clearwater,FL,34698,27.9968784,-82.775358,"['mexican', 'restaurants']",3.5,12,0,0,1,0,0,0,0,0,0,0,1,0,0,1,0,0,0,0,1,0,0,0,1,0,0,1,0,0,1
abovethesalt280250824650,lZyINQz8hoGZk-WhqXy0Sw,Above The Salt Cafe,428 W Waters Ave,tampa,FL,33604,28.0250508,-82.4650148,"['cuban', 'restaurants']",5.0,41,0,0,1,1,0,1,0,1,1,0,1,0,1,1,1,1,0,0,1,0,0,0,1,1,1,1,1,0,1
firstwatchxx277856826383,VX7GkJDnhPG8NmrdO1V-6Q,First Watch,1345 4th St N,st. petersburg,FL,33701,27.785663,-82.638323,['restaurants'],4.0,82,1,1,1,1,0,0,0,0,0,0,1,0,0,1,0,0,0,0,1,0,0,1,1,0,1,0,1,0,1
thespaniardx279456825327,YEJh9kUueYsB_OSY11HXUA,The Spaniard,5303 W Kennedy Blvd,tampa,FL,33609,27.9456158,-82.5327449,"['latin american', 'restaurants']",4.0,31,1,0,1,1,0,1,1,0,0,0,1,0,0,1,0,0,0,0,0,0,0,0,1,0,0,0,1,0,1
riverviewfre278585823273,4ZEQ2PfSYEyFLOt4JNKxHg,Riverview Fresh Market,9613 US Hwy 301 S,riverview,FL,33578,27.8585245,-82.3273091,['food'],3.5,56,1,0,1,0,0,1,0,0,1,0,1,0,1,1,0,0,0,0,0,0,0,0,0,0,0,0,0,0,1
granagavexxx278944823180,aAdGIK9ewmiWtGzIcrQgNA,Gran Agave,5924 Providence Rd,riverview,FL,33578,27.8944444366,-82.3180296645,"['restaurants', 'mexican']",3.5,214,1,0,1,1,0,0,1,0,0,0,1,0,0,0,0,1,1,1,1,0,0,0,1,0,1,1,1,0,1
qdobamexican399145753438,OEzYP44ER97a1hi4LgR6bA,QDOBA Mexican Eats,1054 Baltimore Pike,springfield,FL,19064,39.9145256557,-75.3438321455,"['restaurants', 'mexican']",3.5,44,1,1,1,0,0,0,0,0,1,1,0,0,0,1,0,1,1,0,1,0,0,0,1,0,1,1,1,0,1
yborcityfood279604824416,h8iDZcXLDicI_Wg8fwl-ig,Ybor City Food Tours,"1600 E 7th Ave, Meeting Location",tampa,FL,33605,27.960471175,-82.441660943,"['cuban', 'restaurants']",4.5,15,1,0,0,0,0,0,0,0,0,0,1,0,0,1,0,0,0,0,0,0,0,0,0,0,0,0,0,0,0
floridaavenu281862823674,YHlZCtNLplWoXK_eoOs9-g,Florida Avenue Brewing Co.,2029 Arrowgrass Dr,wesley chapel,FL,33544,28.1862569,-82.3674802,"['restaurants', 'food']",4.0,136,1,0,1,1,1,1,1,0,0,0,1,0,1,1,0,0,0,0,0,0,0,0,1,0,0,0,1,0,1
peposcubanca278631826384,Jc6MxMyCLp4DMfN4C1t1aQ,Pepo's Cuban Cafe,9939 4th St N,st. petersburg,FL,33702,27.863139,-82.6384169,"['cuban', 'restaurants']",4.0,135,1,1,1,1,0,0,0,0,1,0,1,0,1,1,0,1,0,0,1,0,0,0,1,0,1,1,0,0,1
layersbakery282229823815,MgezKZ0Fp250omk3EAgnjw,7 Layers Bakery,26306 Wesley Chapel Blvd,lutz,FL,33559,28.2229374075,-82.3815837287,['food'],4.0,44,0,1,1,0,0,1,0,0,0,0,1,0,1,1,0,0,0,0,0,0,0,0,0,0,0,0,0,0,1
giuseppespiz398445751255,fASBQ_HrzOWcO0ponVZdgA,Giuseppe's Pizzeria,1200 Delsea Dr,westville,FL,08093,39.8445408,-75.1255772,"['pizza', 'restaurants']",3.5,13,1,1,1,0,0,0,0,0,0,0,1,0,0,1,0,0,0,0,1,0,0,0,1,0,0,0,0,0,0
mrmrscrabxxx277899827328,jIDoMS9MNuyDFVC1P3ZblA,Mr. & Mrs. Crab,6798 Crosswinds Dr N,st. petersburg,FL,33710,27.789998,-82.732881,"['seafood', 'restaurants']",4.0,41,1,1,1,1,0,0,1,0,0,0,1,0,0,1,0,0,0,0,1,0,0,0,1,0,1,0,0,0,0
asadosalcarb280150824857,AjzEFdI4hheVodEJZLLJzA,Asados Al Carbon,7212 N Armenia Ave,tampa,FL,33604,28.0150284,-82.4857457,"['colombian', 'latin american', 'food', 'soup', 'spanish', 'restaurants']",3.0,26,1,1,1,1,0,1,0,0,1,0,1,1,1,1,0,0,0,0,1,0,0,0,1,0,1,1,1,0,1
elevationcof281056825312,_mM29ipaSjYo4zJZkswZiA,Elevation Coffee Roasters,"4952 Northdale Blvd, Ste 101",tampa,FL,33624,28.1056223211,-82.5312846143,['food'],5.0,31,1,0,0,0,0,0,0,0,0,0,1,0,0,1,0,0,0,0,0,0,0,0,0,0,0,0,0,0,1
shenaniganzc277595823994,W2zeT_DtJq9GYDUJrzmFOA,Shenaniganz Chill and Grill,5813 N US Hwy 41,apollo beach,FL,33572,27.7595002941,-82.3994485574,"['food', 'restaurants']",3.0,9,0,0,1,1,0,0,0,0,0,0,1,0,0,1,0,0,0,0,1,0,0,0,1,0,1,1,0,0,1
miguelslatin284636825406,9kNwVP9V3e5NVbTSNsUN4w,Miguel's Latin Market,2128 Mariner Blvd,spring hill,FL,34609,28.4636494,-82.540694,"['food', 'restaurants', 'cuban']",4.0,12,1,1,1,0,0,0,0,0,1,0,1,0,0,1,0,0,0,0,1,0,0,0,1,0,0,0,1,0,1
boizaoxxxxxx279592825228,SySSMQNIfXN4KZyMtEukEw,Boizao,4606 Boy Scout Blvd,tampa,FL,33607,27.9592681,-82.5228184,"['brazilian', 'restaurants', 'food']",3.5,66,0,0,0,0,0,0,0,0,0,0,1,0,0,1,0,0,0,0,0,0,0,1,1,0,1,0,1,0,1
lesoleilrest402316747232,TTS3CWZ2QAHD6uvghI4BvQ,Le Soleil Restaurant & Bakery,1469 Nottingham Way,trenton,FL,08609,40.2316477,-74.7232088,"['haitian', 'caribbean', 'restaurants', 'food']",3.5,12,1,0,1,0,0,0,0,0,0,0,1,0,0,0,0,0,0,0,1,0,0,0,1,0,0,0,0,0,1
chipotlemexi278388826846,9ouyziwYpSvJzlLFpukSgA,Chipotle Mexican Grill,3700 Park Blvd N,pinellas park,FL,33781,27.8388019441,-82.6846666245,"['mexican', 'restaurants']",3.0,88,1,1,1,1,0,0,0,0,1,0,1,0,1,0,0,1,0,0,1,0,0,0,1,0,1,1,0,0,1
fondaelpocit364980868815,6yznnZ8xcKZDTIEgZW7kog,Fonda El Pocito,1602 Memorial Blvd,springfield,FL,37172,36.4980445,-86.8815981,"['mexican', 'restaurants']",4.0,6,0,0,0,0,0,0,0,0,0,0,1,0,0,1,0,0,0,0,0,0,0,0,1,0,0,0,0,0,0
chinaseaxxxx280511827385,ehKY9vtzBULm68aTHzVP9A,China Sea,30611 US Highway 19 N,palm harbor,FL,34684,28.051163,-82.7385415,"['chinese', 'restaurants']",3.0,9,0,1,1,0,0,0,0,0,0,0,1,0,1,0,0,0,0,0,1,0,0,0,1,0,1,1,0,0,1
kurryxpressx279418823376,ymy2ykGH2kjcPIitZQkkUg,Kurry Xpress,10069 E Adamo Dr,tampa,FL,33619,27.941878835,-82.3376758397,"['vegetarian', 'pakistani', 'indian', 'restaurants', 'halal']",4.0,46,1,1,1,0,0,1,0,0,1,0,1,0,0,0,0,0,0,0,0,0,0,0,0,0,0,0,1,0,1
papajohnspiz280808825779,lmmPwUAK2F2sV3Tvx0pDHQ,Papa John's Pizza,7891 Gunn Highway,tampa,FL,33626,28.08085,-82.577963,"['pizza', 'restaurants']",3.5,8,1,1,1,0,0,0,0,0,0,0,1,0,1,1,0,0,0,0,1,0,0,0,1,0,1,1,0,0,1
asiankitchen280512827362,peL7F35gY6nXuXDD-08LAA,Asian Kitchen,30611 US Hwy 19 N,palm harbor,FL,34684,28.0512845,-82.7362063,"['restaurants', 'chinese', 'asian fusion']",4.0,51,1,0,1,0,0,0,0,0,0,0,1,0,1,0,0,0,0,0,1,0,0,0,1,0,0,1,0,0,1
hxxxxxxxxxxx280705824297,NNllvvGX8ucSsyJBEWaG-w,H20℃,13520 University Plaza St,tampa,FL,33613,28.0705294,-82.429778,['food'],4.0,12,0,0,1,0,0,1,0,0,1,0,1,0,1,0,0,0,0,0,0,0,0,0,0,0,0,0,1,0,1
starbucksxxx279410825061,buhO8vRCaEoNvlxU0AJRpQ,Starbucks,401 S Dale Mabry Hwy,tampa,FL,33609,27.9410445,-82.5061125,"['food', 'restaurants']",2.5,28,0,0,1,1,0,0,0,0,0,0,1,0,1,1,0,0,0,0,0,0,0,0,0,0,0,0,1,0,1
sipsspecialt280632825503,Jx2AoB_IQOUrZ3s6fdAUSA,Sips Specialty Coffee House,6118 Gunn Hwy,tampa,FL,33625,28.0632446,-82.5503918,"['food', 'restaurants']",4.5,219,1,1,1,1,0,0,0,0,0,1,0,0,1,1,1,0,0,1,1,0,0,0,1,0,1,1,1,0,1
seafoodofbuc403065750301,Q1kcXbMJoI-QnPsYIbNnPw,Seafood of Buckingham Valley,1489 Durham Rd,buckingham,FL,18912,40.3065013,-75.0301734,['food'],4.0,11,0,0,1,0,0,0,0,0,0,0,1,0,1,1,0,0,0,0,0,0,0,0,0,0,0,0,0,0,1
thatlittleba282196827191,JpxUoqoiCTe2y0WaIdo05w,That Little Bakery Cafe,4136 Barker Dr,new port richey,FL,34652,28.21962,-82.719157,['food'],4.5,35,0,1,1,0,0,1,0,0,1,0,1,0,1,1,0,0,0,0,0,0,0,0,0,0,0,0,0,0,1
sushiharuxxx280943825041,8K73iRrUIXcwTB5SKetptQ,Sushi-Haru,3817 Northdale Blvd,tampa,FL,33624,28.0943138,-82.5041143,"['japanese', 'restaurants', 'seafood']",3.5,63,0,0,1,0,0,0,1,0,0,0,1,0,0,0,0,1,1,0,1,0,0,0,1,0,1,1,1,0,1
homestyledel279438827453,h0vlYNJe3V31AtZOAEyAig,Homestyle Deli & Pizza Resturant,1443 S Belcher Rd,clearwater,FL,33764,27.9438702,-82.7453702,"['italian', 'restaurants']",4.5,10,0,0,1,0,0,0,0,0,1,0,1,0,1,0,0,1,1,0,1,0,0,0,1,0,1,1,0,0,1
isaacsworldf280184824510,NA3oFJQBle5iulhYu2b1tA,Isaacs World Famous,7801 N Nebraska Ave,tampa,FL,33604,28.0184918,-82.4510935,"['restaurants', 'chicken wings']",4.0,44,0,1,1,1,0,1,0,0,1,0,1,0,1,1,0,0,0,0,0,0,0,0,1,0,1,0,1,0,1
littleroadfa282093826662,WM5oG8uHlAnjcSvl-HArrQ,Little Road Farm Stand,3533 Little Rd,new port richey,FL,34655,28.2093537,-82.6662655,"['restaurants', 'food']",4.0,5,1,0,0,0,0,0,0,0,0,0,1,0,0,1,0,0,0,0,0,0,0,0,0,0,1,1,0,0,1
seasonscafeb278384826824,7EhTT4iEuA7JaaWA-eI3Qw,Seasons Cafe & Bakery,7261 US Hwy 19 N,pinellas park,FL,33781,27.838462,-82.682464,"['food', 'asian fusion', 'vietnamese', 'restaurants', 'soup']",4.0,292,0,0,1,1,0,0,0,0,1,1,0,0,0,1,0,1,1,1,1,0,0,0,1,0,1,1,1,0,1
louispappasf279200824994,-lhHSR1Aws4CyYC1XOPVTw,Louis Pappas Fresh Greek,3409 W Bay To Bay Blvd,tampa,FL,33629,27.9200036,-82.4994284,"['greek', 'restaurants']",4.0,156,1,1,1,1,0,1,0,0,1,1,0,1,1,1,0,1,0,0,1,0,0,0,1,0,1,1,1,0,1
papajohnspiz280615827071,p7C2l6MyJLq9lKMmUhjqMg,Papa John's Pizza,3460 East Lake Rd,palm harbor,FL,34685,28.0615217,-82.707124,"['pizza', 'restaurants']",3.0,18,1,1,1,0,0,0,0,0,0,0,1,0,0,1,0,0,0,0,0,0,0,0,0,0,0,0,0,0,1
applebeesgri284960825960,SCBYAipfLtclqn5psCyIpQ,Applebee's Grill + Bar,4651 Commercial Way,spring hill,FL,34606,28.496026,-82.596027,['restaurants'],2.5,38,1,1,1,1,0,0,1,0,0,0,1,0,0,0,0,0,0,0,1,0,0,0,1,0,1,1,1,0,1
appstappstri281933826380,tZpxxtkCfY1bkM91vgqrrQ,Apps & Tapps Trinity,"10700 State Road 54, Ste 101",new port richey,FL,34655,28.1933101649,-82.6380192238,"['mexican', 'restaurants']",2.5,25,0,1,1,1,0,1,1,0,0,0,1,1,1,1,0,0,0,0,1,0,0,0,1,1,0,0,1,0,1
marcospizzax281901826263,jlNNg4l7a1QwJCGvNeUIyQ,Marco's Pizza,2152 Corporate Ctr Dr,trinity,FL,34655,28.19017,-82.62636,"['restaurants', 'pizza']",2.5,17,1,1,1,0,0,0,0,0,0,0,1,0,0,1,0,0,0,0,0,0,0,0,1,0,0,0,0,0,1
urbanoasishy280398825351,1NM_by6H29DNqJwQWIliZw,Urban Oasis Hydroponic Farm,5416 W Linebaugh Ave,tampa,FL,33624,28.0398446,-82.5351976,['food'],5.0,6,0,0,0,0,0,0,0,0,0,0,1,0,1,1,0,0,0,0,0,0,0,0,0,0,0,0,0,0,1
njweedmansjo402208747588,KBvdN8Apn4DIxuNW3IESRw,NJ Weedman's Joint,322 E State St,trenton,FL,08608,40.2208764427,-74.7588232612,"['chicken wings', 'food', 'vegetarian', 'restaurants', 'seafood']",4.0,42,1,1,1,1,0,1,0,0,0,0,1,0,0,1,0,0,0,0,1,0,0,0,1,0,1,1,1,0,1
buddybrewcof279445824807,5xokROlB8Zo5T-_qbHzsrQ,Buddy Brew Coffee ,2020 W Kennedy Blvd,tampa,FL,33606,27.944552,-82.480744,['food'],4.0,459,1,1,1,1,0,1,0,0,1,0,1,0,1,1,0,0,0,0,0,0,0,0,1,0,0,1,1,0,1
grandhyattta279651825500,P0yKtQ4cFjNTY1X2CIdzBw,Grand Hyatt Tampa Bay,2900 Bayport Dr,tampa,FL,33607,27.9651702134,-82.5500947185,['restaurants'],4.0,246,1,0,0,1,0,0,0,0,1,0,1,1,1,1,0,1,0,0,1,0,0,0,1,0,1,1,1,0,1
loscomalesxx280738824468,JhwFBmMtZUejWLuEQfGoTg,Los Comales,1202 139th Ave E,tampa,FL,33613,28.0738053,-82.4468235,"['restaurants', 'mexican', 'tex-mex', 'food', 'latin american']",4.5,19,1,1,1,1,0,1,0,0,0,1,0,1,1,1,0,0,0,0,1,0,0,0,1,0,1,1,0,0,1
keithsoaksba279369822816,1XttS5NTqLxhyNb-Rt2fOQ,Keith's Oaks Bar & Grill,108 Lithia Pinecrest Rd,brandon,FL,33511,27.9369722778,-82.281604732,"['restaurants', 'seafood']",3.0,93,1,1,1,1,0,0,1,0,0,0,1,0,1,1,0,1,1,0,1,0,0,0,1,0,1,1,1,0,1
millersaleho399249753123,vFpbUcVAXxrSz5mFIzKbyw,Miller's Ale House - Springfield,18 Baltimore Pike,springfield,FL,19064,39.924929,-75.3123829,"['restaurants', 'seafood']",3.0,295,1,1,1,0,0,0,1,0,0,0,1,0,1,1,0,1,1,0,1,0,0,0,1,0,1,1,1,0,1
ilterrazzoxx279416824541,_A1Dr1Ms8PUuAif7bR_Zcw,IL Terrazzo,700 S Florida Ave,tampa,FL,33602,27.9416361,-82.4541165,"['restaurants', 'italian']",3.0,5,0,0,1,0,0,0,0,0,0,0,1,0,0,0,0,0,0,0,0,0,0,1,1,0,1,1,0,0,1
jimmyjohnsxx279885821215,pXr5ndDooMsfIxuczExK6A,Jimmy John's,2424 James L Redman Pkwy,plant city,FL,33566,27.9885567,-82.1215138,['restaurants'],3.0,13,1,1,1,0,1,1,0,0,1,0,1,0,0,1,0,0,0,0,0,0,0,0,1,0,0,0,0,0,1
mcalistersde280798825074,qa1fGa9u0_awl-A8CinLRg,McAlister's Deli,14444 N Dale Mabry,tampa,FL,33618,28.0798403037,-82.5074949426,"['restaurants', 'food']",4.0,72,1,1,1,1,0,0,0,0,1,1,0,0,1,1,0,1,0,0,1,0,0,0,1,0,1,1,1,0,1
fiveguysxxxx281930826380,Q_4XtUDxWDasRhORDaC-jw,Five Guys,10700 Sr-54,trinity,FL,34655,28.1930102163,-82.6380369067,['restaurants'],3.0,48,1,1,1,0,0,0,0,0,1,0,1,0,1,1,0,1,1,0,1,0,0,0,1,0,1,1,0,0,1
grainandberr277944826388,NRnP0BVwVeSFQRhWXRTGWg,Grain and Berry,2446 4th St N,st. petersburg,FL,33704,27.794445,-82.6388244,"['restaurants', 'vegan', 'food']",5.0,28,1,1,1,1,0,0,0,0,0,0,1,0,0,1,0,0,0,0,0,0,0,0,0,0,0,0,0,0,0
thehonuxxxxx280136827852,USekrAG0-4tJUs9V2gBBOQ,The Honu,516 Grant St,dunedin,FL,34698,28.0136119,-82.7852494,"['poke', 'mexican', 'soup', 'food', 'restaurants', 'hawaiian', 'seafood', 'tex-mex']",4.0,234,1,1,1,1,0,1,1,0,1,0,1,1,1,1,0,1,1,0,1,0,0,0,1,1,1,1,1,0,1
tangelosgril277381827081,wI51ie-6j7y5MzxOCS4fNA,Tangelo's Grille,3121 Beach Blvd S,gulfport,FL,33707,27.7381832,-82.7081043,"['restaurants', 'caribbean']",4.0,121,0,0,1,1,0,0,0,0,1,0,1,0,1,1,0,1,1,0,1,0,0,0,1,0,1,1,1,0,1
publixxxxxxx279446825266,vmbc2yhml5Z54MknbHKbBA,Publix,4900 W Kennedy Blvd,tampa,FL,33609,27.9446222502,-82.526652,"['restaurants', 'food']",3.0,9,1,1,0,0,0,0,0,0,0,0,1,0,0,1,0,0,0,0,0,0,0,0,0,0,0,0,0,0,0
demayobakery279511827754,nZwERuCO2GWBqRTlMKYSQw,5 de Mayo Bakery,1254 S Highland Ave,clearwater,FL,33756,27.9511668676,-82.7754724507,['food'],4.5,17,1,0,1,0,0,0,0,0,1,0,1,0,0,1,0,0,0,0,0,0,0,0,0,0,0,0,0,0,1
wildforkfood280450825822,utZYBTk8PovIJTad7Wm-dg,Wild Fork Foods,10601 Sheldon Rd,tampa,FL,33626,28.0450136,-82.5822626944,['food'],4.5,9,1,0,0,0,0,0,0,0,0,0,1,0,0,1,0,0,0,0,0,0,0,0,0,0,0,0,0,0,0
papajohnspiz282191826915,2siLuXZHbG0KNOUgOkGiEA,Papa John's Pizza,4120 Rowan Rd,new port richey,FL,34653,28.219171,-82.6915008,"['pizza', 'restaurants']",2.5,12,1,1,1,0,0,0,0,0,0,1,0,0,1,1,0,0,0,0,1,0,0,0,1,0,1,1,0,0,1
targetxxxxxx280886825049,lmgCjE_h9VkpJYjsD2Li0A,Target,15240 N Dale Mabry Hwy,tampa,FL,33618,28.088613,-82.504973,['food'],3.5,36,1,0,0,0,0,1,0,0,0,1,0,0,1,1,0,0,0,0,0,0,0,0,1,0,0,0,0,0,1
acapulcoloco279671827317,10MHfI2mRKGJu_Vbm64pkQ,Acapulco Loco,"2551 Drew St, Ste 104",clearwater,FL,33765,27.967192,-82.731746,"['mexican', 'restaurants']",2.5,19,0,1,1,1,0,0,1,0,1,0,1,0,0,0,0,0,0,0,1,0,0,0,1,0,1,1,0,0,1
italianclubx279600824394,DVG3oqNuDZbTDe3zCUZsng,Italian Club,1731 E 7th Ave,tampa,FL,33605,27.9600273,-82.439416,"['restaurants', 'italian']",3.5,8,1,0,0,0,0,0,0,0,0,0,1,0,0,1,0,0,0,0,0,0,0,0,1,0,0,0,0,0,1
ohanacafexxx280690827759,1Efad30BdOeqqjX2d6P4sw,Ohana Cafe,306 Orange St N,palm harbor,FL,34683,28.0690372,-82.775979,"['vegan', 'asian fusion', 'vegetarian', 'restaurants', 'gluten-free', 'hawaiian']",4.0,99,0,0,1,0,0,0,0,0,1,0,1,0,1,1,0,0,0,0,1,0,0,0,1,0,1,1,1,0,1
wendysxxxxxx298896900314,LZEe4gVp1BNqYdGl-OZzBg,Wendy's,1190 Terry Pkwy.,gretna,FL,70056,29.8896265,-90.0314708,['restaurants'],1.5,17,1,1,1,0,0,0,0,0,0,0,1,0,0,0,0,0,0,0,1,0,0,0,1,0,0,0,0,0,1
greeniguanab280307825406,mm4gSCCJXuAZFWDkESMjmw,Green Iguana Bar & Grill,9202 Anderson Rd,tampa,FL,33602,28.030793,-82.540639,"['food', 'restaurants']",3.0,24,0,0,1,1,0,0,1,0,0,0,1,0,0,1,0,0,0,0,1,0,0,0,1,0,1,1,0,0,1
funggardenxx282320821803,VlrSuulqTFeQfV2PToJGvg,Fung Garden,5118 Gall Blvd,zephyrhills,FL,33542,28.232059,-82.180394,['restaurants'],3.5,8,0,0,1,0,0,0,0,0,1,0,1,0,0,1,0,0,0,0,1,0,0,0,1,0,1,1,0,0,1
planetsmooth280564824268,SuSM_GQtmxrUR4egJmGM2w,Planet Smoothie,11852 Bruce B Downs Blvd,tampa,FL,33612,28.0564781,-82.426828,['food'],3.5,23,1,0,1,0,0,0,0,0,0,0,1,0,0,1,0,0,0,0,0,0,0,0,0,0,0,0,1,0,1
queenofsheba280487823927,EP2jFD3aGoSBCWb7irY5-w,Queen of Sheba,11001 N 56th St,temple terrace,FL,33617,28.048786,-82.3927705,"['ethiopian', 'restaurants', 'vegan', 'vegetarian']",4.0,361,1,0,1,1,0,0,0,0,1,0,1,0,1,1,0,0,1,0,1,0,0,0,1,0,1,1,0,0,1
tapperpubxxx279075825026,bjl2Xtm9kCWsCqz0OkS75g,Tapper Pub,3832 Britton Plz,tampa,FL,33611,27.907526,-82.502693,['restaurants'],4.0,29,1,0,1,1,0,0,1,0,0,0,1,0,1,1,0,0,0,0,0,0,0,0,1,0,1,0,1,0,1
clearwaterso279814828267,T4cFgeKlnSzqBsfD702kTQ,Clearwater Social Brewing Company,"483 Mandalay Ave, Ste 213",clearwater,FL,33767,27.9814984,-82.8267454,['food'],4.0,26,1,0,1,0,0,1,1,0,0,0,1,1,1,1,0,0,0,0,0,0,0,0,0,0,0,0,0,0,1
amliquorxxxx280756827376,tHq2BHHqam5eiOQkFpFcBA,3am Liquor,33381 US Hwy 19 N,palm harbor,FL,34684,28.0756021,-82.7376014,['food'],3.0,7,1,0,0,0,0,1,0,0,0,0,1,0,0,1,0,0,0,0,0,0,0,0,0,0,0,0,0,0,1
popnsonsdine279897825057,_VB4EIoGdAR4sBB6rApEAg,Pop N Sons Diner,4812 N Dale Mabry Hwy,tampa,FL,33614,27.989713899999998,-82.5057506,['restaurants'],4.0,160,0,0,1,1,0,0,0,0,0,0,1,0,1,1,1,1,1,0,1,0,0,0,1,0,1,1,1,0,1
starbucksxxx281001826912,InI2O9i59galnR563-A9oA,Starbucks,4978 Ridgemoor Blvd,palm harbor,FL,34685,28.1001329,-82.6912161,"['food', 'restaurants']",4.0,19,1,0,1,1,0,0,0,0,0,0,1,0,0,1,0,0,0,0,0,0,0,0,0,0,0,0,1,0,1
bigislandpok278939825022,3hlI68hS0pKFY6_rK5UU_g,Big Island Poke,3601 W Gandy Blvd,tampa,FL,33611,27.8939748,-82.5022832,"['poke', 'food', 'hawaiian', 'restaurants']",4.0,128,1,0,1,0,0,0,0,0,1,0,1,1,1,1,0,0,0,0,0,0,0,0,0,0,0,0,1,0,1
gelatocafexx279817828273,AzzQwDjeuc9ZmZfvHJVAIg,Gelato Cafe,490 Mandalay Ave,clearwater,FL,33767,27.981777,-82.8273396,['food'],4.0,20,1,0,1,0,0,0,0,0,0,0,1,0,1,1,0,0,0,0,0,0,0,0,0,0,0,0,1,0,1
islamoradafi279345823332,ySXKjndttZjNy3kcqRqG3g,Islamorada Fish Company Restaurant,10501 Palm River Rd,tampa,FL,33619,27.9345402662,-82.3332157323,"['fish & chips', 'restaurants']",2.5,136,0,1,1,0,0,0,1,0,0,0,1,0,1,1,0,1,1,0,1,0,0,0,1,0,1,1,0,0,1
baycitysandw279489824570,s8eXjE9r0vo78hzb3Br7cQ,Bay City Sandwich Shop,410 E Madison St,tampa,FL,33602,27.9489566,-82.4570483,"['restaurants', 'food']",4.5,10,0,0,1,0,0,0,0,0,0,1,0,0,1,0,0,0,0,0,1,0,0,0,1,0,0,1,0,0,1
ratchadathai277718826368,IW_uYAP59YwLVurBUfhs4A,Ratchada Thai Restaurant and Sushi Bar,270 1st Avenue North,st. petersburg,FL,33701,27.771826,-82.636816,"['restaurants', 'thai']",2.5,22,0,0,1,0,0,0,0,0,0,0,1,0,0,1,0,0,0,0,1,0,0,0,1,0,1,1,0,0,1
stackersxxxx298795900200,WjAtLl-5zyjdr9YMB1mHbw,Stackers,2950 Belle Chasse Hwy,gretna,FL,70056,29.8795753,-90.0200789,"['restaurants', 'seafood']",4.5,6,0,0,1,0,0,0,0,0,1,1,0,0,0,0,0,0,0,0,1,0,0,0,1,0,1,1,0,0,1
bodyfuelxxxx278947822467,aOisWROu-yOwsKsw4zM_OQ,Body Fuel,"3240 Lithia Pinecrest Rd, Ste 103",valrico,FL,33596,27.894708,-82.246768,"['vegetarian', 'restaurants', 'food']",4.0,15,1,1,1,0,0,1,0,0,1,0,1,0,1,0,0,0,0,0,0,0,0,0,0,0,0,0,0,0,1
gatorsdocksi280548823905,7tN8hIXdQlfc7Lf5OOyjeg,Gator's Dockside - Tampa,5840 E Fowler Ave,tampa,FL,33617,28.0548911,-82.3905826,"['chicken wings', 'restaurants', 'fish & chips']",3.5,158,0,0,1,1,0,0,1,0,0,0,1,0,1,1,0,1,1,0,1,0,0,0,1,0,1,1,1,0,1
cheftonymaca280119824601,auH0BAgcZwxuQFKmvwy5PQ,Chef Tony Macaroni,6918 N Florida Ave,tampa,FL,33604,28.011989,-82.4601919,"['italian', 'restaurants']",5.0,5,1,1,1,1,0,1,0,0,1,1,0,0,0,1,0,0,0,0,0,0,0,0,0,0,0,0,1,0,0
sushiushixxx279370822590,LnQRfj3pPz0369stRnwUWw,Sushi Ushi,1713 State Rd 60 E,valrico,FL,33594,27.9370758833,-82.2590851463,"['japanese', 'restaurants']",4.5,256,1,1,1,0,0,0,1,0,0,0,1,0,0,1,0,1,1,0,1,0,0,0,1,0,1,1,1,0,1
outbacksteak279384823183,U0ICWpbd1C0GD9SpIv3bSA,Outback Steakhouse,"2020 Brandon Blvd, Ste 190",brandon,FL,33511,27.9384740106,-82.3183461208,['restaurants'],3.5,165,1,1,1,1,0,0,1,0,1,0,1,0,0,1,0,0,1,0,1,0,0,0,1,0,1,1,1,0,1
tampabaybrew280378826476,Swjkmg5qAHT6hwXQRWQoHQ,Tampa Bay Brewing Company Westchase,13937 Monroe's Business Park,tampa,FL,33635,28.0378445013,-82.6476599503,"['food', 'restaurants']",4.0,476,1,0,1,1,0,1,0,0,0,0,1,1,1,1,0,1,1,0,1,0,0,0,1,0,1,1,1,0,1
alpineliquor280164824509,ggOBvjaHGDCck-67wtmFEQ,Alpine Liquors,7501 N Nebraska Ave,tampa,FL,33604,28.0164219,-82.4509461,['food'],4.0,12,1,0,0,0,0,0,0,0,0,0,1,0,0,1,0,0,0,0,0,0,0,0,0,0,0,0,0,0,1
mellowmushro279222823286,wHiPhPVuGnngEieDBMG00g,Mellow Mushroom - Brandon,10959 Causeway Blvd,brandon,FL,33511,27.9222603996,-82.3286704227,"['pizza', 'restaurants']",4.0,391,1,1,1,1,1,0,1,0,1,0,1,0,1,1,0,1,1,0,1,0,0,0,1,0,1,1,1,0,1
oldtowncafex280780827668,BGLazGm6grYkF_HpodkdDQ,Old Town Cafe,1019 Florida Ave,palm harbor,FL,34683,28.0780518,-82.7668844,"['food', 'restaurants']",4.5,6,0,0,0,0,0,0,0,0,0,0,1,0,0,1,0,0,0,0,0,0,0,0,0,0,1,1,0,0,0
dickiesbbqxx281939823540,cqGHHh6nkP46p_MnUaD0yg,Dickies BBQ,"2560-2598, Fl orida",wesley chapel,FL,33543,28.1939789615,-82.3540767535,['restaurants'],3.0,15,1,0,1,0,0,0,0,0,0,0,1,0,1,1,0,0,0,0,1,0,0,0,1,0,1,1,0,0,1
pizzatwistgr396349860848,ivmKTD7lUjsGU7smNOL81A,"Pizza Twist - Greenwood, IN","997 E County Line Rd, Ste P",greenwood,FL,46143,39.6349858712,-86.0848651775,"['pizza', 'restaurants']",3.5,46,1,1,1,0,0,0,0,0,1,0,1,0,0,1,0,0,0,0,0,0,0,0,1,0,1,0,0,0,1
guatericodel402134747535,yfHAv4seGavxYebzUgtZrg,Guaterico Deli,526 S Clinton Ave,trenton,FL,08611,40.2134659,-74.753501,"['mexican', 'latin american', 'restaurants']",4.0,6,1,0,1,0,0,0,0,0,0,0,1,0,0,0,0,0,0,0,1,0,0,0,0,0,0,0,0,0,0
namvietvietn278459827005,wXvbqjS9g9461rnxSCqcag,Nam Viet Vietnamese Cuisine,8150 49th St N,pinellas park,FL,33781,27.84598,-82.7005,"['vietnamese', 'restaurants']",4.0,6,1,0,0,0,0,0,0,0,0,0,1,0,0,0,0,0,0,0,0,0,0,0,0,0,0,0,0,0,0
devitospizza402037747502,zgaaJ6jAhKpWCtQRryJfVQ,Devito's Pizza IV,124 Tremont St,trenton,FL,08611,40.2037482,-74.7502687,"['pizza', 'italian', 'restaurants']",4.0,5,1,1,1,0,0,0,0,0,0,0,1,0,1,1,0,1,0,0,1,0,0,0,1,0,1,1,0,0,1
kekesbreakfa280714824268,lH3tplAcbNrNL0nJoyXCNA,Keke's Breakfast Cafe,13614 Bruce B Downs Blvd,tampa,FL,33612,28.0714552,-82.4268348,['restaurants'],4.5,163,1,0,1,0,0,0,0,0,0,0,1,0,0,1,1,1,0,0,1,0,0,0,1,0,1,1,1,0,1
mrsebasxxxxx280166821232,Knd4u3v3I_6SbAzp_gbXaQ,Mr. Sebas,104 E Reynolds,plant city,FL,33563,28.0166144,-82.123249,"['food', 'mexican', 'restaurants']",3.5,20,1,0,0,1,0,0,0,0,0,0,1,0,0,0,0,0,0,0,1,0,0,0,1,0,1,1,0,0,1
seescandiess279650825196,T3muepcwD45gHLWcpaNNDQ,See's Candies Seasonal Location,"2223 N. West Shore Boulevard, Inline Space No. 135",tampa,FL,33607,27.965029,-82.519643,['food'],4.0,5,0,0,0,0,0,1,0,0,0,0,1,0,1,1,0,0,0,0,0,0,0,0,0,0,0,0,0,0,1
sugardarling282173826738,80YxG377gZn4crOTUSgbRQ,Sugardarlings Cupcakes,8511 Old County Rd 54,new port richey,FL,34655,28.2173974,-82.6738883,['food'],4.5,32,1,1,1,0,0,0,0,0,0,0,1,0,1,0,0,0,0,0,0,0,0,0,0,0,0,1,0,0,1
hablotacoxxx279430824475,WWnRdTjwaTnsLSJX95j-Zw,Hablo Taco,"615 Channelside Dr, Ste 127, Channelside Bay Plaza",tampa,FL,33602,27.9430540651,-82.447500625,"['restaurants', 'mexican', 'tex-mex']",3.5,268,0,0,1,1,0,1,1,0,1,0,1,1,1,1,0,1,1,0,1,0,0,0,1,0,1,1,1,0,1
sarkujapanxx396318861197,rli_orteha_lGm72qnrgGg,Sarku Japan,1251 US Hwy 31 N,greenwood,FL,46142,39.631866,-86.11975,"['japanese', 'restaurants']",3.5,7,1,1,1,0,0,0,0,0,0,1,0,0,0,0,0,0,0,0,1,0,0,0,1,0,1,1,0,0,1
tonysopranos398520751249,c3_lkH7CAglbcIyyXthTcg,Tony Soprano's Pizza,1083 Delsea Dr,westville,FL,08093,39.8520593,-75.1249159,"['pizza', 'restaurants', 'italian']",2.5,43,1,1,1,0,0,0,0,0,0,0,1,0,1,1,0,0,0,0,1,0,0,0,1,0,1,1,0,0,1
kubaxxxxxxxx277435827506,IjtKwA7njLjTvZr0nFSLeA,Kuba ,7525 Blind Pass Rd,st. pete beach,FL,33706,27.7435201,-82.7506397,"['restaurants', 'cuban']",4.0,230,1,1,1,1,0,1,1,0,1,1,0,0,1,1,1,1,1,0,1,0,0,1,1,0,1,1,1,0,1
cvspharmacyx279170827450,pQM6xrg4QNVXLLIdT-oOUw,CVS Pharmacy,4000 East Bay Dr,clearwater,FL,33764,27.917,-82.745,['food'],1.5,7,1,1,0,0,1,1,0,0,0,0,1,0,1,0,0,0,0,0,0,0,0,0,0,0,0,0,0,0,1
saluteitalia284615825408,iGUhAOzU-_q7F-XDOfT4CA,Salute Italian Restaurant,11061 Spring Hill Dr,spring hill,FL,34608,28.4615286,-82.5408019,"['italian', 'restaurants']",3.5,6,0,0,1,1,0,0,0,0,1,0,1,0,0,1,0,0,0,0,1,0,0,0,1,0,1,1,0,0,1
mcdonaldsxxx278945825179,nROgQ9JIN0sjv-i5R1rHcA,McDonald's,4818 S Manhattan,tampa,FL,33611,27.8945234966,-82.517929594,"['food', 'restaurants']",2.0,21,1,1,1,0,1,0,0,0,0,1,0,0,1,0,0,0,0,0,1,0,0,0,1,0,1,1,1,0,1
esushiodessa281958825917,skX8LBrX5U45JoF07ykbJQ,E Sushi Odessa,13537 State Rd 54,odessa,FL,33556,28.1958513945,-82.5917008406,"['restaurants', 'japanese']",4.0,55,1,1,1,1,0,0,0,0,0,0,1,0,0,1,0,0,0,0,0,0,0,0,0,0,1,0,1,0,0
ihopxxxxxxxx282282827310,_Dr8Bnt8us2qyPKayfj-rA,IHOP,4736 US Hwy 19,new port richey,FL,34652,28.22827,-82.73109,['restaurants'],2.5,29,1,1,1,0,0,0,0,0,0,0,1,0,1,0,0,0,0,0,1,0,0,0,1,0,1,1,1,0,1
rallyxxxxxxx277919826381,3CYCAfxR4aoNb7gCIsN8pg,Rally,2131 4th St N,st. petersburg,FL,33704,27.7919009,-82.6381522,['food'],4.0,27,1,0,1,0,0,0,0,0,0,0,1,0,1,1,0,0,0,0,0,0,0,0,0,0,0,0,0,0,1
